{
  "type": "FeatureCollection",
  "features": [
    {
      "type": "Feature",
      "properties": {
        "name": "Tsukihime: Yokota Clinic",
        "image": "https://en.nalsai.de/blog/seichi/tsukihime/bg_67.avif",
        "description": "An usual old \"german-style\" building in Koshigaya. It used to be a clinic and before that a post office. https://www.youtube.com/watch?v=uskihGiO2nI https://retropost.net/koshigaya/"
      },
      "geometry": {
        "type": "Point",
        "coordinates": [
          139.78768996917856,
          35.89155773282753
        ]
      }
    },
    {
      "type": "Feature",
      "properties": {
        "name": "Riddle Joker: Genbaku Dome-Mae Station (Hiroshima)",
        "image": "https://cdn-ak.f.st-hatena.com/images/fotolife/y/yuiyu22/20210221/20210221200008.jpg",
        "link": "https://rinnow.hatenablog.com/entry/riddle/",
        "icon": "red"
      },
      "geometry": {
        "type": "Point",
        "coordinates": [
          132.45422773207113,
          34.39611977088741
        ]
      }
    },
    {
      "type": "Feature",
      "properties": {
        "name": "Tenshi☆Souzou RE-BOOT!: Takatsuki Station (Takatsuki, Osaka)",
        "image": "https://cdn-ak.f.st-hatena.com/images/fotolife/y/yuiyu22/20230327/20230327145922.png",
        "link": "https://rinnow.hatenablog.com/entry/ten_sz",
        "icon": "tenshisz"
      },
      "geometry": {
        "type": "Point",
        "coordinates": [
          135.61889284902227,
          34.8516868013059
        ]
      }
    },
    {
      "type": "Feature",
      "properties": {
        "name": "Tenshi☆Souzou RE-BOOT!: Nigawagokayamacho (Nishinomiya)",
        "image": "https://cdn-ak.f.st-hatena.com/images/fotolife/y/yuiyu22/20230327/20230327145935.png",
        "link": "https://rinnow.hatenablog.com/entry/ten_sz",
        "icon": "tenshisz"
      },
      "geometry": {
        "type": "Point",
        "coordinates": [
          135.3486825375915,
          34.771365852936896
        ]
      }
    },
    {
      "type": "Feature",
      "properties": {
        "name": "Tenshi☆Souzou RE-BOOT!: Hankyu Nishinomiya Gardens (Nishinomiya)",
        "image": "https://cdn-ak.f.st-hatena.com/images/fotolife/y/yuiyu22/20230505/20230505220926.png",
        "link": "https://rinnow.hatenablog.com/entry/ten_sz",
        "icon": "tenshisz"
      },
      "geometry": {
        "type": "Point",
        "coordinates": [
          135.35989528822822,
          34.744062736394326
        ]
      }
    },
    {
      "type": "Feature",
      "properties": {
        "name": "Tenshi☆Souzou RE-BOOT!: Kobe Fruit Flower Park Ozo (Kobe)",
        "image": "https://cdn-ak.f.st-hatena.com/images/fotolife/y/yuiyu22/20230327/20230327145950.png",
        "link": "https://rinnow.hatenablog.com/entry/ten_sz",
        "icon": "tenshisz"
      },
      "geometry": {
        "type": "Point",
        "coordinates": [
          135.19174517723363,
          34.84775978538305
        ]
      }
    },
    {
      "type": "Feature",
      "properties": {
        "name": "Oregairu: Inage Overpass",
        "image": "https://files.nils.moe/www/nalsai.de/blog/seichi/oregairu/_/Yahari%20Ore%20no%20Seishun%20LoveCome%20wa%20Machigatte%20Iru.%20Kan%20-%2011%20-%2015m47s989t.jpg",
        "link": "https://www.google.com/maps/d/u/0/viewer?mid=1WUBCnqTi1gTo8A2xucPVCrGKglFI5he9"
      },
      "geometry": {
        "type": "Point",
        "coordinates": [
          140.08439188589693,
          35.63195715477925
        ]
      }
    },
    {
      "type": "Feature",
      "properties": {
        "name": "Oregairu: Takasu Community Center Chiba",
        "image": "https://files.nils.moe/www/nalsai.de/blog/seichi/oregairu/_/14.jpg",
        "link": "https://www.google.com/maps/d/u/0/viewer?mid=1WUBCnqTi1gTo8A2xucPVCrGKglFI5he9"
      },
      "geometry": {
        "type": "Point",
        "coordinates": [
          140.07060703976532,
          35.62713512702018
        ]
      }
    },
    {
      "type": "Feature",
      "properties": {
        "name": "Oregairu: Kasai Rinkai Park - Crystal View Observation Rest House",
        "image": "https://en.nalsai.de/blog/seichi/oregairu/Yahari%20Ore%20no%20Seishun%20LoveCome%20wa%20Machigatte%20Iru.%20Zoku%20-%2013%20-%2015m36s978t.avif",
        "link": "https://en.nalsai.de/blog/seichi/oregairu/#kasai-rinkai-park"
      },
      "geometry": {
        "type": "Point",
        "coordinates": [
          139.86086896852163,
          35.63915386129988
        ]
      }
    },
    {
      "type": "Feature",
      "properties": {
        "name": "Oregairu: Kasai Rinkai Park - behind Crystal View Observation Rest House",
        "image": "https://en.nalsai.de/blog/seichi/oregairu/Yahari%20Ore%20no%20Seishun%20LoveCome%20wa%20Machigatte%20Iru.%20Zoku%20-%2013%20-%2017m52s488t.avif",
        "link": "https://en.nalsai.de/blog/seichi/oregairu/#kasai-rinkai-park"
      },
      "geometry": {
        "type": "Point",
        "coordinates": [
          139.85959948458853,
          35.64097020791387
        ]
      }
    },
    {
      "type": "Feature",
      "properties": {
        "name": "Oregairu: Kasai Rinkai Park - Tokyo Sea Life Park Dome",
        "image": "https://en.nalsai.de/blog/seichi/oregairu/Yahari%20Ore%20no%20Seishun%20LoveCome%20wa%20Machigatte%20Iru.%20Zoku%20-%2013%20-%2015m31s681t.avif",
        "link": "https://en.nalsai.de/blog/seichi/oregairu/#kasai-rinkai-park"
      },
      "geometry": {
        "type": "Point",
        "coordinates": [
          139.86235933931994,
          35.640362391059135
        ]
      }
    },
    {
      "type": "Feature",
      "properties": {
        "name": "Oregairu: Kasai Rinkai Park - Diamond and Flower Ferris Wheel",
        "image": "https://en.nalsai.de/blog/seichi/oregairu/83.avif",
        "link": "https://en.nalsai.de/blog/seichi/oregairu/#kasai-rinkai-park"
      },
      "geometry": {
        "type": "Point",
        "coordinates": [
          139.858069216516,
          35.64254797429428
        ]
      }
    },
    {
      "type": "Feature",
      "properties": {
        "name": "Oregairu: Kasai Rinkai Park - Diamond and Flower Ferris Wheel (close-up)",
        "image": "https://files.nils.moe/www/nalsai.de/blog/seichi/oregairu/_/93.png",
        "link": "https://www.google.com/maps/d/u/0/viewer?mid=1WUBCnqTi1gTo8A2xucPVCrGKglFI5he9"
      },
      "geometry": {
        "type": "Point",
        "coordinates": [
          139.8574197852503,
          35.64403794056119
        ]
      }
    },
    {
      "type": "Feature",
      "properties": {
        "name": "Oregairu: Kasai Rinkai Park Station",
        "image": "https://en.nalsai.de/blog/seichi/oregairu/81.avif",
        "link": "https://en.nalsai.de/blog/seichi/oregairu/#kasai-rinkai-park"
      },
      "geometry": {
        "type": "Point",
        "coordinates": [
          139.86116041224824,
          35.6440769278199
        ]
      }
    },
    {
      "type": "Feature",
      "properties": {
        "name": "Oregairu: Kasai Rinkai Park - Tokyo Sea Life Park 1",
        "image": "https://files.nils.moe/www/nalsai.de/blog/seichi/oregairu/_/Yahari%20Ore%20no%20Seishun%20LoveCome%20wa%20Machigatte%20Iru.%20Zoku%20-%2013%20-%2009m13s511t.jpg",
        "link": "https://en.nalsai.de/blog/seichi/oregairu/#kasai-rinkai-park"
      },
      "geometry": {
        "type": "Point",
        "coordinates": [
          139.86181714771593,
          35.64015331821779
        ]
      }
    },
    {
      "type": "Feature",
      "properties": {
        "name": "Oregairu: Kasai Rinkai Park - Tokyo Sea Life Park 2",
        "image": "https://files.nils.moe/www/nalsai.de/blog/seichi/oregairu/_/Yahari%20Ore%20no%20Seishun%20LoveCome%20wa%20Machigatte%20Iru.%20Zoku%20-%2013%20-%2009m22s687t.jpg",
        "link": "https://en.nalsai.de/blog/seichi/oregairu/#kasai-rinkai-park"
      },
      "geometry": {
        "type": "Point",
        "coordinates": [
          139.8619417227825,
          35.64023623810969
        ]
      }
    },
    {
      "type": "Feature",
      "properties": {
        "name": "Oregairu: Kasai Rinkai Park - Tokyo Sea Life Park 3",
        "image": "https://files.nils.moe/www/nalsai.de/blog/seichi/oregairu/_/Yahari%20Ore%20no%20Seishun%20LoveCome%20wa%20Machigatte%20Iru.%20Zoku%20-%2013%20-%2010m02s936t.jpg",
        "link": "https://en.nalsai.de/blog/seichi/oregairu/#kasai-rinkai-park"
      },
      "geometry": {
        "type": "Point",
        "coordinates": [
          139.86199818893687,
          35.64013618278943
        ]
      }
    },
    {
      "type": "Feature",
      "properties": {
        "name": "Oregairu: Kasai Rinkai Park - Tokyo Sea Life Park 4",
        "image": "https://files.nils.moe/www/nalsai.de/blog/seichi/oregairu/_/Yahari%20Ore%20no%20Seishun%20LoveCome%20wa%20Machigatte%20Iru.%20Zoku%20-%2013%20-%2014m29s452t.jpg",
        "link": "https://en.nalsai.de/blog/seichi/oregairu/#kasai-rinkai-park"
      },
      "geometry": {
        "type": "Point",
        "coordinates": [
          139.86213889276323,
          35.64012414543344
        ]
      }
    },
    {
      "type": "Feature",
      "properties": {
        "name": "Oregairu: Kasai Rinkai Park - Trackless Train",
        "image": "https://en.nalsai.de/blog/seichi/oregairu/Yahari%20Ore%20no%20Seishun%20LoveCome%20wa%20Machigatte%20Iru.%20Zoku%20-%2013%20-%2015m26s717t.avif",
        "link": "https://en.nalsai.de/blog/seichi/oregairu/#kasai-rinkai-park"
      },
      "geometry": {
        "type": "Point",
        "coordinates": [
          139.86051463131534,
          35.64278079245109
        ]
      }
    },
    {
      "type": "Feature",
      "properties": {
        "name": "Fruits Basket: Gyokusendo Book Store",
        "image": "https://cdn-ak.f.st-hatena.com/images/fotolife/k/kimamanidance/20191211/20191211160856.jpg",
        "link": "https://kimamanidance.hatenablog.com/entry/2019/12/19/180000"
      },
      "geometry": {
        "type": "Point",
        "coordinates": [
          139.6618957521618,
          35.59813813381133
        ]
      }
    },
    {
      "type": "Feature",
      "properties": {
        "name": "Fruits Basket: Road East of Gyokusendo Book Store",
        "image": "https://cdn-ak.f.st-hatena.com/images/fotolife/k/kimamanidance/20191211/20191211160525.jpg",
        "link": "https://kimamanidance.hatenablog.com/entry/2019/12/19/180000"
      },
      "geometry": {
        "type": "Point",
        "coordinates": [
          139.66187143515876,
          35.59818736360064
        ]
      }
    },
    {
      "type": "Feature",
      "properties": {
        "name": "Fruits Basket: Gyokusendo Book Store 2",
        "image": "https://cdn-ak.f.st-hatena.com/images/fotolife/k/kimamanidance/20191211/20191211160913.jpg",
        "link": "https://kimamanidance.hatenablog.com/entry/2019/12/19/180000"
      },
      "geometry": {
        "type": "Point",
        "coordinates": [
          139.66177516915783,
          35.598156496821545
        ]
      }
    },
    {
      "type": "Feature",
      "properties": {
        "name": "Fruits Basket: Akiba Black Pine",
        "image": "https://cdn-ak.f.st-hatena.com/images/fotolife/k/kimamanidance/20191211/20191211153649.jpg",
        "link": "https://kimamanidance.hatenablog.com/entry/2019/12/19/180000"
      },
      "geometry": {
        "type": "Point",
        "coordinates": [
          139.65923799276192,
          35.59564111956207
        ]
      }
    },
    {
      "type": "Feature",
      "properties": {
        "name": "Dragon Maid: Koshigaya Station West Exit",
        "image": "https://survive-tactics.com/wp-content/uploads/2018/09/kosigaya_nishiguchi1.png",
        "link": "https://survive-tactics.com/2018/09/24/maidragon_seichizyunnrei/"
      },
      "geometry": {
        "type": "Point",
        "coordinates": [
          139.7852877228059,
          35.8884420101956
        ]
      }
    },
    {
      "type": "Feature",
      "properties": {
        "name": "Dragon Maid: Koshigaya Station West Exit Street",
        "image": "https://survive-tactics.com/wp-content/uploads/2018/09/kyukobayashi2.png",
        "link": "https://survive-tactics.com/2018/09/24/maidragon_seichizyunnrei/"
      },
      "geometry": {
        "type": "Point",
        "coordinates": [
          139.78535286346758,
          35.88800730205599
        ]
      }
    },
    {
      "type": "Feature",
      "properties": {
        "name": "Dragon Maid: Crosswalk near Koshigaya Station West Exit",
        "image": "https://survive-tactics.com/wp-content/uploads/2018/09/kyukobayashi1.png",
        "link": "https://survive-tactics.com/2018/09/24/maidragon_seichizyunnrei/"
      },
      "geometry": {
        "type": "Point",
        "coordinates": [
          139.7844453443772,
          35.887893613986044
        ]
      }
    },
    {
      "type": "Feature",
      "properties": {
        "name": "Dragon Maid: Koshigaya Station East Exit from Escalator",
        "image": "https://survive-tactics.com/wp-content/uploads/2018/09/higashiguchi1.png",
        "link": "https://survive-tactics.com/2018/09/24/maidragon_seichizyunnrei/"
      },
      "geometry": {
        "type": "Point",
        "coordinates": [
          139.78650181180768,
          35.88904738892097
        ]
      }
    },
    {
      "type": "Feature",
      "properties": {
        "name": "Dragon Maid: Koshigaya East Exit Bus Stop",
        "image": "https://survive-tactics.com/wp-content/uploads/2018/09/higashiguchi3.png",
        "link": "https://survive-tactics.com/2018/09/24/maidragon_seichizyunnrei/"
      },
      "geometry": {
        "type": "Point",
        "coordinates": [
          139.78610533170848,
          35.88862666092951
        ]
      }
    },
    {
      "type": "Feature",
      "properties": {
        "name": "Dragon Maid: Koshigaya Station East Exit View",
        "image": "https://survive-tactics.com/wp-content/uploads/2018/09/higashiguchi1.png",
        "link": "https://survive-tactics.com/2018/09/24/maidragon_seichizyunnrei/"
      },
      "geometry": {
        "type": "Point",
        "coordinates": [
          139.79384634086372,
          35.88835099190968
        ]
      }
    },
    {
      "type": "Feature",
      "properties": {
        "name": "Dragon Maid: Koshigaya Station East Exit",
        "image": "https://survive-tactics.com/wp-content/uploads/2018/09/higashiguchi7.png",
        "link": "https://survive-tactics.com/2018/09/24/maidragon_seichizyunnrei/"
      },
      "geometry": {
        "type": "Point",
        "coordinates": [
          139.78627080394972,
          35.88834825839703
        ]
      }
    },
    {
      "type": "Feature",
      "properties": {
        "name": "Dragon Maid: Saitama Resona Bank Koshigaya (Oborozuka Bank)",
        "image": "https://survive-tactics.com/wp-content/uploads/2018/09/faf5.png",
        "link": "https://survive-tactics.com/2018/09/24/maidragon_seichizyunnrei/"
      },
      "geometry": {
        "type": "Point",
        "coordinates": [
          139.78791058071522,
          35.889045909631946
        ]
      }
    },
    {
      "type": "Feature",
      "properties": {
        "name": "Dragon Maid: Real Estate Agency (Oborozuka Residence)",
        "image": "https://survive-tactics.com/wp-content/uploads/2018/09/faf6.png",
        "link": "https://survive-tactics.com/2018/09/24/maidragon_seichizyunnrei/"
      },
      "geometry": {
        "type": "Point",
        "coordinates": [
          139.7880515706762,
          35.88908596222865
        ]
      }
    },
    {
      "type": "Feature",
      "properties": {
        "name": "Dragon Maid: Dentist / STORY Hair Salon",
        "image": "https://survive-tactics.com/wp-content/uploads/2018/09/faf4.png",
        "link": "https://survive-tactics.com/2018/09/24/maidragon_seichizyunnrei/",
        "description": "It used to be a dentist like in the anime, but now it's a hair salon."
      },
      "geometry": {
        "type": "Point",
        "coordinates": [
          139.7889717015642,
          35.88920623316265
        ]
      }
    },
    {
      "type": "Feature",
      "properties": {
        "name": "Dragon Maid: East of Shinheiwa Bridge",
        "image": "https://survive-tactics.com/wp-content/uploads/2018/09/faf1.png",
        "link": "https://survive-tactics.com/2018/09/24/maidragon_seichizyunnrei/"
      },
      "geometry": {
        "type": "Point",
        "coordinates": [
          139.79303258618842,
          35.890651286906255
        ]
      }
    },
    {
      "type": "Feature",
      "properties": {
        "name": "Dragon Maid: Shinheiwa Bridge",
        "image": "https://survive-tactics.com/wp-content/uploads/2018/09/faf2.png",
        "link": "https://survive-tactics.com/2018/09/24/maidragon_seichizyunnrei/"
      },
      "geometry": {
        "type": "Point",
        "coordinates": [
          139.79286238383204,
          35.8909516201695
        ]
      }
    },
    {
      "type": "Feature",
      "properties": {
        "name": "Dragon Maid: Wisteria at the North-West End of Shinheiwa Bridge",
        "image": "https://survive-tactics.com/wp-content/uploads/2018/09/faf3.png",
        "link": "https://survive-tactics.com/2018/09/24/maidragon_seichizyunnrei/"
      },
      "geometry": {
        "type": "Point",
        "coordinates": [
          139.7916357787916,
          35.89057460959184
        ]
      }
    },
    {
      "type": "Feature",
      "properties": {
        "name": "Dragon Maid: Higashikoshigaya Botan Park",
        "image": "https://survive-tactics.com/wp-content/uploads/2018/09/park1-1.png",
        "link": "https://survive-tactics.com/2018/09/24/maidragon_seichizyunnrei/",
        "description": "Botan is the Japanese word for peony. (Skip if low on time.)"
      },
      "geometry": {
        "type": "Point",
        "coordinates": [
          139.7989268969512,
          35.890399573755
        ]
      }
    },
    {
      "type": "Feature",
      "properties": {
        "name": "Dragon Maid: Higashikoshigaya Botan Park Slide",
        "image": "https://survive-tactics.com/wp-content/uploads/2018/09/park1-2.png",
        "link": "https://survive-tactics.com/2018/09/24/maidragon_seichizyunnrei/"
      },
      "geometry": {
        "type": "Point",
        "coordinates": [
          139.79914213067752,
          35.89030349572429
        ]
      }
    },
    {
      "type": "Feature",
      "properties": {
        "name": "Dragon Maid: Higashikoshigaya Botan Park Bench",
        "image": "https://survive-tactics.com/wp-content/uploads/2018/09/park1-3.png",
        "link": "https://survive-tactics.com/2018/09/24/maidragon_seichizyunnrei/"
      },
      "geometry": {
        "type": "Point",
        "coordinates": [
          139.7992571064733,
          35.89035909933217
        ]
      }
    },
    {
      "type": "Feature",
      "properties": {
        "name": "Dragon Maid: Higashikoshigaya Botan Park Grass Field",
        "image": "https://survive-tactics.com/wp-content/uploads/2018/09/park1-4.png",
        "link": "https://survive-tactics.com/2018/09/24/maidragon_seichizyunnrei/"
      },
      "geometry": {
        "type": "Point",
        "coordinates": [
          139.79941465509344,
          35.89013095039582
        ]
      }
    },
    {
      "type": "Feature",
      "properties": {
        "name": "Dragon Maid: Higashikoshigaya Nanachome Shiinoki Park (South Side)",
        "image": "https://survive-tactics.com/wp-content/uploads/2018/09/park2-1.png",
        "link": "https://survive-tactics.com/2018/09/24/maidragon_seichizyunnrei/"
      },
      "geometry": {
        "type": "Point",
        "coordinates": [
          139.80044779303446,
          35.89063215768744
        ]
      }
    },
    {
      "type": "Feature",
      "properties": {
        "name": "Dragon Maid: Higashikoshigaya Nanachome Shiinoki Park",
        "image": "https://survive-tactics.com/wp-content/uploads/2018/09/park2-3.png",
        "link": "https://survive-tactics.com/2018/09/24/maidragon_seichizyunnrei/"
      },
      "geometry": {
        "type": "Point",
        "coordinates": [
          139.80045340081003,
          35.89090156326962
        ]
      }
    },
    {
      "type": "Feature",
      "properties": {
        "name": "Dragon Maid: Way to School",
        "image": "https://survive-tactics.com/wp-content/uploads/2018/09/tugaku.png",
        "link": "https://survive-tactics.com/2018/09/24/maidragon_seichizyunnrei/"
      },
      "geometry": {
        "type": "Point",
        "coordinates": [
          139.80430969629953,
          35.89168543935159
        ]
      }
    },
    {
      "type": "Feature",
      "properties": {
        "name": "Dragon Maid: Motoara River 1",
        "image": "https://survive-tactics.com/wp-content/uploads/2018/09/river1.png",
        "link": "https://survive-tactics.com/2018/09/24/maidragon_seichizyunnrei/",
        "description": "Proportions don't match so the photo will be a bit off."
      },
      "geometry": {
        "type": "Point",
        "coordinates": [
          139.7923191453093,
          35.88873525727121
        ]
      }
    },
    {
      "type": "Feature",
      "properties": {
        "name": "Dragon Maid: Motoara River 2",
        "image": "https://survive-tactics.com/wp-content/uploads/2018/09/river3.png",
        "link": "https://survive-tactics.com/2018/09/24/maidragon_seichizyunnrei/"
      },
      "geometry": {
        "type": "Point",
        "coordinates": [
          139.79384634086372,
          35.88835099190968
        ]
      }
    },
    {
      "type": "Feature",
      "properties": {
        "name": "Dragon Maid: Motoara River 3",
        "image": "https://survive-tactics.com/wp-content/uploads/2018/09/river2.png",
        "link": "https://survive-tactics.com/2018/09/24/maidragon_seichizyunnrei/"
      },
      "geometry": {
        "type": "Point",
        "coordinates": [
          139.79522241946881,
          35.88778862738444
        ]
      }
    },
    {
      "type": "Feature",
      "properties": {
        "name": "Cafe Stella: Nagoya Station",
        "image": "https://cdn-ak.f.st-hatena.com/images/fotolife/y/yuiyu22/20210817/20210817215359.jpg",
        "link": "https://rinnow.hatenablog.com/entry/stella",
        "icon": "cafestella"
      },
      "geometry": {
        "type": "Point",
        "coordinates": [
          136.88399850293274,
          35.17187041479474
        ]
      }
    },
    {
      "type": "Feature",
      "properties": {
        "name": "Cafe Stella: Hijiechō Street",
        "image": "https://cdn-ak.f.st-hatena.com/images/fotolife/y/yuiyu22/20210817/20210817215409.jpg",
        "link": "https://rinnow.hatenablog.com/entry/stella",
        "icon": "cafestella"
      },
      "geometry": {
        "type": "Point",
        "coordinates": [
          136.88543058371985,
          35.1694666035802
        ]
      }
    },
    {
      "type": "Feature",
      "properties": {
        "name": "Cafe Stella: Ōtsu Street",
        "image": "https://cdn-ak.f.st-hatena.com/images/fotolife/y/yuiyu22/20210817/20210817215418.jpg",
        "link": "https://rinnow.hatenablog.com/entry/stella",
        "icon": "cafestella"
      },
      "geometry": {
        "type": "Point",
        "coordinates": [
          136.90697654169196,
          35.16426480447924
        ]
      }
    },
    {
      "type": "Feature",
      "properties": {
        "name": "Cafe Stella: Nadya Park",
        "image": "https://cdn-ak.f.st-hatena.com/images/fotolife/y/yuiyu22/20210817/20210817215505.jpg",
        "link": "https://rinnow.hatenablog.com/entry/stella",
        "icon": "cafestella"
      },
      "geometry": {
        "type": "Point",
        "coordinates": [
          136.90527824448566,
          35.165374239836254
        ]
      }
    },
    {
      "type": "Feature",
      "properties": {
        "name": "Cafe Stella: Wakamiya Hachiman Shrine",
        "image": "https://cdn-ak.f.st-hatena.com/images/fotolife/y/yuiyu22/20210817/20210817215429.jpg",
        "link": "https://rinnow.hatenablog.com/entry/stella",
        "icon": "cafestella"
      },
      "geometry": {
        "type": "Point",
        "coordinates": [
          136.90331380227164,
          35.16303601685916
        ]
      }
    },
    {
      "type": "Feature",
      "properties": {
        "name": "Cafe Stella: Osaka University Toyonaka Campus",
        "image": "https://cdn-ak.f.st-hatena.com/images/fotolife/y/yuiyu22/20210817/20210817215439.jpg",
        "link": "https://rinnow.hatenablog.com/entry/stella",
        "icon": "cafestella"
      },
      "geometry": {
        "type": "Point",
        "coordinates": [
          135.45359463229238,
          34.80589270692499
        ]
      }
    },
    {
      "type": "Feature",
      "properties": {
        "name": "Cafe Stella: Universal City",
        "image": "https://cdn-ak.f.st-hatena.com/images/fotolife/y/yuiyu22/20210817/20210817215454.jpg",
        "link": "https://rinnow.hatenablog.com/entry/stella",
        "icon": "cafestella"
      },
      "geometry": {
        "type": "Point",
        "coordinates": [
          135.437127635988,
          34.66811311474616
        ]
      }
    },
    {
      "type": "Feature",
      "properties": {
        "name": "Fate: Japan Christian Junior College",
        "image": "https://en.nalsai.de/blog/seichi/fate/chiba-jcjc.avif",
        "description": "The college was demolished in 2009 and the site is now filled with rows of detached houses."
      },
      "geometry": {
        "type": "Point",
        "coordinates": [
          140.15077963342276,
          35.65722782701316
        ]
      }
    },
    {
      "type": "Feature",
      "properties": {
        "name": "Fate: Umeyashiki Street",
        "image": "https://en.nalsai.de/blog/seichi/fate/umeyashiki.avif",
        "link": "https://kimamanidance.hatenablog.com/entry/2021/02/21/180000"
      },
      "geometry": {
        "type": "Point",
        "coordinates": [
          139.727719595335,
          35.56740668534043
        ]
      }
    },
    {
      "type": "Feature",
      "properties": {
        "name": "Amairo*Islenauts: Kawaguchiko Music Forest Museum",
        "image": "https://files.nils.moe/www/nalsai.de/blog/seichi/TODO/amairo/FPVdN4LaUAUpCW8.jpg",
        "link": "https://x.com/yamabito0/status/1510215750484893697"
      },
      "geometry": {
        "coordinates": [
          138.76848544452366,
          35.52220899468692
        ],
        "type": "Point"
      }
    },
    {
      "type": "Feature",
      "properties": {
        "name": "Fate: Yugyō-ji",
        "image": "https://en.nalsai.de/blog/seichi/fate/yugyoji.avif",
        "link": "https://en.nalsai.de/blog/seichi/fate#yugyō-ji-fujisawa-kanagawa",
        "description": "NOTE: The interior is based on Eihei-ji in Fukui Prefecture."
      },
      "geometry": {
        "type": "Point",
        "coordinates": [
          139.4883360811191,
          35.34804540673058
        ]
      }
    },
    {
      "type": "Feature",
      "properties": {
        "name": "Fate: Eihei-ji",
        "image": "https://en.nalsai.de/blog/seichi/fate/eiheiji.avif"
      },
      "geometry": {
        "type": "Point",
        "coordinates": [
          136.3568082195673,
          36.05565634688583
        ]
      }
    },
    {
      "type": "Feature",
      "properties": {
        "name": "Fate: Somon Gate of Engaku-ji",
        "image": "https://en.nalsai.de/blog/seichi/fate/engakuji.avif",
        "link": "https://en.nalsai.de/blog/seichi/fate#engaku-ji-kamakura-kanagawa",
        "description": "Looks similar but the stairs are different."
      },
      "geometry": {
        "type": "Point",
        "coordinates": [
          139.54596673866536,
          35.33696792890682
        ]
      }
    },
    {
      "type": "Feature",
      "geometry": {
        "type": "Point",
        "coordinates": [
          135.1900342,
          34.6967038
        ]
      },
      "properties": {
        "name": "LLJ: 路地裏",
        "image": "https://files.nils.moe/www/nalsai.de/blog/seichi/TODO/lalajam/llj-alley.jpg"
      }
    },
    {
      "type": "Feature",
      "geometry": {
        "type": "Point",
        "coordinates": [
          135.4875039,
          34.7033005
        ]
      },
      "properties": {
        "name": "LLJ: ライブハウス周辺",
        "image": "https://files.nils.moe/www/nalsai.de/blog/seichi/TODO/lalajam/llj-street.jpg"
      }
    },
    {
      "type": "Feature",
      "geometry": {
        "type": "Point",
        "coordinates": [
          135.1934671,
          34.6942843
        ]
      },
      "properties": {
        "name": "LLJ: 英山駅前",
        "image": "https://files.nils.moe/www/nalsai.de/blog/seichi/TODO/lalajam/llj-station.jpg"
      }
    },
    {
      "type": "Feature",
      "geometry": {
        "type": "Point",
        "coordinates": [
          135.1933806,
          34.6942181
        ]
      },
      "properties": {
        "name": "LLJ: MV",
        "image": "https://files.nils.moe/www/nalsai.de/blog/seichi/TODO/lalajam/llj-mv.jpg"
      }
    },
    {
      "type": "Feature",
      "geometry": {
        "type": "Point",
        "coordinates": [
          134.0497527,
          34.3424757
        ]
      },
      "properties": {
        "name": "LLJ: 河鍋音楽祭",
        "image": "https://files.nils.moe/www/nalsai.de/blog/seichi/TODO/lalajam/llj-takamatsu.png",
        "description": "TODO: image 2"
      }
    },
    {
      "type": "Feature",
      "geometry": {
        "type": "Point",
        "coordinates": [
          135.1936095,
          34.7002908
        ]
      },
      "properties": {
        "name": "LLJ: オムライス店？",
        "image": "https://files.nils.moe/www/nalsai.de/blog/seichi/TODO/lalajam/llj-omrice.png"
      }
    },
    {
      "type": "Feature",
      "geometry": {
        "type": "Point",
        "coordinates": [
          135.1886927,
          34.6909109
        ]
      },
      "properties": {
        "name": "LLJ: イタリア洋菓子屋？",
        "image": "https://files.nils.moe/www/nalsai.de/blog/seichi/TODO/lalajam/llj-TODO.png"
      }
    },
    {
      "type": "Feature",
      "geometry": {
        "type": "Point",
        "coordinates": [
          135.1918752,
          34.6921956
        ]
      },
      "properties": {
        "name": "LLJ: スフォリアテッラ",
        "image": "https://files.nils.moe/www/nalsai.de/blog/seichi/TODO/lalajam/llj-TODO.png"
      }
    },
    {
      "type": "Feature",
      "geometry": {
        "type": "Point",
        "coordinates": [
          135.1981875,
          34.6960625
        ]
      },
      "properties": {
        "name": "LLJ: モスバーガー",
        "image": "https://files.nils.moe/www/nalsai.de/blog/seichi/TODO/lalajam/llj-TODO.png"
      }
    },
    {
      "type": "Feature",
      "geometry": {
        "type": "Point",
        "coordinates": [
          135.1934835,
          34.6938281
        ]
      },
      "properties": {
        "name": "LLJ: スターバックス",
        "image": "https://files.nils.moe/www/nalsai.de/blog/seichi/TODO/lalajam/llj-TODO.png"
      }
    },
    {
      "type": "Feature",
      "geometry": {
        "type": "Point",
        "coordinates": [
          135.1870241,
          34.6960039
        ]
      },
      "properties": {
        "name": "LLJ: バーチ ディ ダーマ",
        "image": "https://files.nils.moe/www/nalsai.de/blog/seichi/TODO/lalajam/llj-TODO.png"
      }
    },
    {
      "type": "Feature",
      "geometry": {
        "type": "Point",
        "coordinates": [
          139.7002269286329,
          35.659382674131
        ]
      },
      "properties": {
        "name": "Subahibi: Rooftop Background Buildings (Shibuya)",
        "image": "https://files.nils.moe/www/nalsai.de/blog/seichi/TODO/subahibi/roof.jpg",
        "description": "TODO: real image: shibuya-rl.png"
      }
    }
  ]
}