{
  "type": "FeatureCollection",
  "features": [
    {
      "type": "Feature",
      "properties": {
        "name": "Tsukihime: Nakano Residential Street",
        "image": "https://en.nalsai.de/blog/seichi/tsukihime/bg_23a.avif"
      },
      "geometry": {
        "type": "Point",
        "coordinates": [
          139.66851191753747,
          35.703215458761484
        ]
      }
    },
    {
      "type": "Feature",
      "properties": {
        "name": "Tsukihime: Shinjuku Sumitomo Building",
        "image": "https://en.nalsai.de/blog/seichi/tsukihime/bg_29a.avif",
        "description": "The area has been renovated and you can barely recognize it anymore. Only the trees are still in the same place."
      },
      "geometry": {
        "type": "Point",
        "coordinates": [
          139.69238264643624,
          35.690980122586744
        ]
      }
    },
    {
      "type": "Feature",
      "properties": {
        "name": "Tsukihime: Yokota Clinic",
        "image": "https://en.nalsai.de/blog/seichi/tsukihime/bg_67.avif",
        "description": "An usual old \"german-style\" building in Koshigaya. It used to be a clinic and before that a post office. https://www.youtube.com/watch?v=uskihGiO2nI https://retropost.net/koshigaya/"
      },
      "geometry": {
        "type": "Point",
        "coordinates": [
          139.78768996917856,
          35.89155773282753
        ]
      }
    },
    {
      "type": "Feature",
      "properties": {
        "name": "Tsukihime: Bic Camera Shibuya Hachiko Exit Store Sign",
        "image": "https://en.nalsai.de/blog/seichi/tsukihime/bg_86.avif"
      },
      "geometry": {
        "type": "Point",
        "coordinates": [
          139.69952911359783,
          35.659604330724015
        ]
      }
    },
    {
      "type": "Feature",
      "properties": {
        "name": "SubaHibi: Parthenon Avenue (Tama)",
        "image": "https://cdn-ak.f.st-hatena.com/images/fotolife/y/yuiyu22/20210219/20210219234404.jpg",
        "link": "https://rinnow.hatenablog.com/entry/subahibi/"
      },
      "geometry": {
        "type": "Point",
        "coordinates": [
          139.424761304447,
          35.62414840183171
        ]
      }
    },
    {
      "type": "Feature",
      "properties": {
        "name": "SubaHibi: Renga Bridge (Tama)",
        "image": "https://cdn-ak.f.st-hatena.com/images/fotolife/y/yuiyu22/20210219/20210219234422.jpg",
        "link": "https://rinnow.hatenablog.com/entry/subahibi/"
      },
      "geometry": {
        "type": "Point",
        "coordinates": [
          139.42387310769774,
          35.62154323630518
        ]
      }
    },
    {
      "type": "Feature",
      "properties": {
        "name": "Riddle Joker: Queen's Square (Yokohama)",
        "image": "https://cdn-ak.f.st-hatena.com/images/fotolife/y/yuiyu22/20210221/20210221195948.jpg",
        "link": "https://rinnow.hatenablog.com/entry/riddle/"
      },
      "geometry": {
        "type": "Point",
        "coordinates": [
          139.63413785001913,
          35.4563847056365
        ]
      }
    },
    {
      "type": "Feature",
      "properties": {
        "name": "Riddle Joker: Landmark Tower 2F (Yokohama)",
        "image": "https://cdn-ak.f.st-hatena.com/images/fotolife/y/yuiyu22/20210221/20210221200139.jpg",
        "link": "https://rinnow.hatenablog.com/entry/riddle/"
      },
      "geometry": {
        "type": "Point",
        "coordinates": [
          139.63092918779444,
          35.45486429340934
        ]
      }
    },
    {
      "type": "Feature",
      "properties": {
        "name": "Riddle Joker: Minatomirai Center Building (Yokohama)",
        "image": "https://cdn-ak.f.st-hatena.com/images/fotolife/y/yuiyu22/20210221/20210221200008.jpg",
        "link": "https://rinnow.hatenablog.com/entry/riddle/",
        "description": "The building in the background of the station is the Minato Mirai Center Building, but the station itself is actually Genbaku Dome-Mae Station in Hiroshima."
      },
      "geometry": {
        "type": "Point",
        "coordinates": [
          139.63388441826692,
          35.45762829401641
        ]
      }
    },
    {
      "type": "Feature",
      "properties": {
        "name": "Riddle Joker: Keyaki Avenue (Yokohama)",
        "image": "https://cdn-ak.f.st-hatena.com/images/fotolife/y/yuiyu22/20210221/20210221195938.jpg",
        "link": "https://rinnow.hatenablog.com/entry/riddle/"
      },
      "geometry": {
        "type": "Point",
        "coordinates": [
          139.63414046166028,
          35.457797457052784
        ]
      }
    },
    {
      "type": "Feature",
      "properties": {
        "name": "Riddle Joker: Shinkyogoku Shopping Street (Kyoto)",
        "image": "https://cdn-ak.f.st-hatena.com/images/fotolife/y/yuiyu22/20210816/20210816002243.jpg",
        "link": "https://rinnow.hatenablog.com/entry/riddle/",
        "description": "The store has changed so it looks a little different now."
      },
      "geometry": {
        "type": "Point",
        "coordinates": [
          135.7673731413051,
          35.0073116771607
        ]
      }
    },
    {
      "type": "Feature",
      "properties": {
        "name": "Riddle Joker: Kyoto Botanical Garden (Kyoto) 1",
        "image": "https://cdn-ak.f.st-hatena.com/images/fotolife/y/yuiyu22/20210816/20210816002223.jpg",
        "link": "https://rinnow.hatenablog.com/entry/riddle/"
      },
      "geometry": {
        "type": "Point",
        "coordinates": [
          135.76394824413768,
          35.05014785024713
        ]
      }
    },
    {
      "type": "Feature",
      "properties": {
        "name": "Riddle Joker: Kyoto Botanical Garden (Kyoto) 2",
        "image": "https://cdn-ak.f.st-hatena.com/images/fotolife/y/yuiyu22/20210816/20210816002213.jpg",
        "link": "https://rinnow.hatenablog.com/entry/riddle/"
      },
      "geometry": {
        "type": "Point",
        "coordinates": [
          135.7645269795909,
          35.047478115722136
        ]
      }
    },
    {
      "type": "Feature",
      "properties": {
        "name": "Riddle Joker: Kyoto University Katsura Campus 1",
        "image": "https://cdn-ak.f.st-hatena.com/images/fotolife/y/yuiyu22/20210816/20210816002154.jpg",
        "link": "https://rinnow.hatenablog.com/entry/riddle/"
      },
      "geometry": {
        "type": "Point",
        "coordinates": [
          135.68385262784662,
          34.979084670721065
        ]
      }
    },
    {
      "type": "Feature",
      "properties": {
        "name": "Riddle Joker: Kyoto University Katsura Campus 2",
        "image": "https://cdn-ak.f.st-hatena.com/images/fotolife/y/yuiyu22/20210816/20210816002144.jpg",
        "link": "https://rinnow.hatenablog.com/entry/riddle/"
      },
      "geometry": {
        "type": "Point",
        "coordinates": [
          135.68009477830495,
          34.98082165281947
        ]
      }
    },
    {
      "type": "Feature",
      "properties": {
        "name": "Riddle Joker: Kyoto University Katsura Campus 3",
        "image": "https://cdn-ak.f.st-hatena.com/images/fotolife/y/yuiyu22/20210816/20210816002204.jpg",
        "link": "https://rinnow.hatenablog.com/entry/riddle/"
      },
      "geometry": {
        "type": "Point",
        "coordinates": [
          135.67906855662096,
          34.98207408578309
        ]
      }
    },
    {
      "type": "Feature",
      "properties": {
        "name": "Riddle Joker: Kyoto University Katsura Campus 4",
        "image": "https://cdn-ak.f.st-hatena.com/images/fotolife/y/yuiyu22/20210816/20210816002233.jpg",
        "link": "https://rinnow.hatenablog.com/entry/riddle/"
      },
      "geometry": {
        "type": "Point",
        "coordinates": [
          135.6773843747983,
          34.983059702993415
        ]
      }
    },
    {
      "type": "Feature",
      "properties": {
        "name": "Riddle Joker: Ōyodo Naka Park (Osaka)",
        "image": "https://cdn-ak.f.st-hatena.com/images/fotolife/y/yuiyu22/20210816/20210816002133.jpg",
        "link": "https://rinnow.hatenablog.com/entry/riddle/"
      },
      "geometry": {
        "type": "Point",
        "coordinates": [
          135.48903352087626,
          34.70530174818592
        ]
      }
    },
    {
      "type": "Feature",
      "properties": {
        "name": "Riddle Joker: Genbaku Dome-Mae Station (Hiroshima)",
        "image": "https://cdn-ak.f.st-hatena.com/images/fotolife/y/yuiyu22/20210221/20210221200008.jpg",
        "link": "https://rinnow.hatenablog.com/entry/riddle/",
        "description": "The station is Genbaku Dome-Mae Station in Hiroshima, but the building in the background is the Minato Mirai Center Building in Yokohama.",
        "hidden": "true"
      },
      "geometry": {
        "type": "Point",
        "coordinates": [
          132.45422773207113,
          34.39611977088741
        ]
      }
    },
    {
      "type": "Feature",
      "properties": {
        "name": "Senren*Banka: THE GARDEN PLACE SOSHUEN (Kobe)",
        "image": "https://cdn-ak.f.st-hatena.com/images/fotolife/y/yuiyu22/20220929/20220929000849_original.png",
        "link": "https://rinnow.hatenablog.com/entry/senren#%E8%98%87%E5%B7%9E%E5%9C%92"
      },
      "geometry": {
        "type": "Point",
        "coordinates": [
          135.2544855734471,
          34.727578210114395
        ]
      }
    },
    {
      "type": "Feature",
      "properties": {
        "name": "Tenshi☆Souzou RE-BOOT!: Ichō Avenue (Yokohama)",
        "image": "https://cdn-ak.f.st-hatena.com/images/fotolife/y/yuiyu22/20230505/20230505220254.png",
        "link": "https://rinnow.hatenablog.com/entry/ten_sz"
      },
      "geometry": {
        "type": "Point",
        "coordinates": [
          139.63107193726168,
          35.4586314605782
        ]
      }
    },
    {
      "type": "Feature",
      "properties": {
        "name": "Tenshi☆Souzou RE-BOOT!: Gokomachi Avenue (Kyoto)",
        "image": "https://cdn-ak.f.st-hatena.com/images/fotolife/y/yuiyu22/20230518/20230518223619.png",
        "link": "https://rinnow.hatenablog.com/entry/ten_sz",
        "icon": "tenshisz"
      },
      "geometry": {
        "type": "Point",
        "coordinates": [
          135.76643908397213,
          35.00747408830734
        ]
      }
    },
    {
      "type": "Feature",
      "properties": {
        "name": "Tenshi☆Souzou RE-BOOT!: Takatsuki Station (Takatsuki, Osaka)",
        "image": "https://cdn-ak.f.st-hatena.com/images/fotolife/y/yuiyu22/20230327/20230327145922.png",
        "link": "https://rinnow.hatenablog.com/entry/ten_sz",
        "icon": "tenshisz"
      },
      "geometry": {
        "type": "Point",
        "coordinates": [
          135.61889284902227,
          34.8516868013059
        ]
      }
    },
    {
      "type": "Feature",
      "properties": {
        "name": "Tenshi☆Souzou RE-BOOT!: Nigawagokayamacho (Nishinomiya)",
        "image": "https://cdn-ak.f.st-hatena.com/images/fotolife/y/yuiyu22/20230327/20230327145935.png",
        "link": "https://rinnow.hatenablog.com/entry/ten_sz",
        "icon": "tenshisz"
      },
      "geometry": {
        "type": "Point",
        "coordinates": [
          135.3486825375915,
          34.771365852936896
        ]
      }
    },
    {
      "type": "Feature",
      "properties": {
        "name": "Tenshi☆Souzou RE-BOOT!: Hankyu Nishinomiya Gardens (Nishinomiya)",
        "image": "https://cdn-ak.f.st-hatena.com/images/fotolife/y/yuiyu22/20230505/20230505220926.png",
        "link": "https://rinnow.hatenablog.com/entry/ten_sz",
        "icon": "tenshisz"
      },
      "geometry": {
        "type": "Point",
        "coordinates": [
          135.35989528822822,
          34.744062736394326
        ]
      }
    },
    {
      "type": "Feature",
      "properties": {
        "name": "Tenshi☆Souzou RE-BOOT!: Kobe Fruit Flower Park Ozo (Kobe)",
        "image": "https://cdn-ak.f.st-hatena.com/images/fotolife/y/yuiyu22/20230327/20230327145950.png",
        "link": "https://rinnow.hatenablog.com/entry/ten_sz",
        "icon": "tenshisz"
      },
      "geometry": {
        "type": "Point",
        "coordinates": [
          135.19174517723363,
          34.84775978538305
        ]
      }
    },
    {
      "type": "Feature",
      "properties": {
        "name": "Oregairu: Chiba Port Park",
        "image": "https://files.nils.moe/www/nalsai.de/blog/seichi/oregairu/_/91.png",
        "link": "https://www.google.com/maps/d/u/0/viewer?mid=1WUBCnqTi1gTo8A2xucPVCrGKglFI5he9"
      },
      "geometry": {
        "type": "Point",
        "coordinates": [
          140.0993942468515,
          35.5981914528429
        ]
      }
    },
    {
      "type": "Feature",
      "properties": {
        "name": "Oregairu: Chiba Station",
        "image": "https://files.nils.moe/www/nalsai.de/blog/seichi/oregairu/_/4.jpg",
        "link": "https://www.google.com/maps/d/u/0/viewer?mid=1WUBCnqTi1gTo8A2xucPVCrGKglFI5he9"
      },
      "geometry": {
        "type": "Point",
        "coordinates": [
          140.1145394592334,
          35.612622683931775
        ]
      }
    },
    {
      "type": "Feature",
      "properties": {
        "name": "Oregairu: Inage Overpass",
        "image": "https://files.nils.moe/www/nalsai.de/blog/seichi/oregairu/_/Yahari%20Ore%20no%20Seishun%20LoveCome%20wa%20Machigatte%20Iru.%20Kan%20-%2011%20-%2015m47s989t.jpg",
        "link": "https://www.google.com/maps/d/u/0/viewer?mid=1WUBCnqTi1gTo8A2xucPVCrGKglFI5he9"
      },
      "geometry": {
        "type": "Point",
        "coordinates": [
          140.08439188589693,
          35.63195715477925
        ]
      }
    },
    {
      "type": "Feature",
      "properties": {
        "name": "Oregairu: Takasu Community Center Chiba",
        "image": "https://files.nils.moe/www/nalsai.de/blog/seichi/oregairu/_/14.jpg",
        "link": "https://www.google.com/maps/d/u/0/viewer?mid=1WUBCnqTi1gTo8A2xucPVCrGKglFI5he9"
      },
      "geometry": {
        "type": "Point",
        "coordinates": [
          140.07060703976532,
          35.62713512702018
        ]
      }
    },
    {
      "type": "Feature",
      "properties": {
        "name": "Oregairu: Yukino's Apartment",
        "image": "https://files.nils.moe/www/nalsai.de/blog/seichi/oregairu/_/92.png",
        "link": "https://www.google.com/maps/d/u/0/viewer?mid=1WUBCnqTi1gTo8A2xucPVCrGKglFI5he9"
      },
      "geometry": {
        "type": "Point",
        "coordinates": [
          140.04562697840748,
          35.64397655780282
        ]
      }
    },
    {
      "type": "Feature",
      "properties": {
        "name": "Oregairu: Kasai Rinkai Park - Crystal View Observation Rest House",
        "image": "https://en.nalsai.de/blog/seichi/oregairu/Yahari%20Ore%20no%20Seishun%20LoveCome%20wa%20Machigatte%20Iru.%20Zoku%20-%2013%20-%2015m36s978t.avif",
        "link": "https://en.nalsai.de/blog/seichi/oregairu/#kasai-rinkai-park"
      },
      "geometry": {
        "type": "Point",
        "coordinates": [
          139.86086896852163,
          35.63915386129988
        ]
      }
    },
    {
      "type": "Feature",
      "properties": {
        "name": "Oregairu: Kasai Rinkai Park - behind Crystal View Observation Rest House",
        "image": "https://en.nalsai.de/blog/seichi/oregairu/Yahari%20Ore%20no%20Seishun%20LoveCome%20wa%20Machigatte%20Iru.%20Zoku%20-%2013%20-%2017m52s488t.avif",
        "link": "https://en.nalsai.de/blog/seichi/oregairu/#kasai-rinkai-park"
      },
      "geometry": {
        "type": "Point",
        "coordinates": [
          139.85959948458853,
          35.64097020791387
        ]
      }
    },
    {
      "type": "Feature",
      "properties": {
        "name": "Oregairu: Kasai Rinkai Park - Tokyo Sea Life Park Dome",
        "image": "https://en.nalsai.de/blog/seichi/oregairu/Yahari%20Ore%20no%20Seishun%20LoveCome%20wa%20Machigatte%20Iru.%20Zoku%20-%2013%20-%2015m31s681t.avif",
        "link": "https://en.nalsai.de/blog/seichi/oregairu/#kasai-rinkai-park"
      },
      "geometry": {
        "type": "Point",
        "coordinates": [
          139.86235933931994,
          35.640362391059135
        ]
      }
    },
    {
      "type": "Feature",
      "properties": {
        "name": "Oregairu: Kasai Rinkai Park - Diamond and Flower Ferris Wheel",
        "image": "https://en.nalsai.de/blog/seichi/oregairu/83.avif",
        "link": "https://en.nalsai.de/blog/seichi/oregairu/#kasai-rinkai-park"
      },
      "geometry": {
        "type": "Point",
        "coordinates": [
          139.858069216516,
          35.64254797429428
        ]
      }
    },
    {
      "type": "Feature",
      "properties": {
        "name": "Oregairu: Kasai Rinkai Park - Diamond and Flower Ferris Wheel (close-up)",
        "image": "https://files.nils.moe/www/nalsai.de/blog/seichi/oregairu/_/93.png",
        "link": "https://www.google.com/maps/d/u/0/viewer?mid=1WUBCnqTi1gTo8A2xucPVCrGKglFI5he9"
      },
      "geometry": {
        "type": "Point",
        "coordinates": [
          139.8574197852503,
          35.64403794056119
        ]
      }
    },
    {
      "type": "Feature",
      "properties": {
        "name": "Oregairu: Kasai Rinkai Park Station",
        "image": "https://en.nalsai.de/blog/seichi/oregairu/81.avif",
        "link": "https://en.nalsai.de/blog/seichi/oregairu/#kasai-rinkai-park"
      },
      "geometry": {
        "type": "Point",
        "coordinates": [
          139.86116041224824,
          35.6440769278199
        ]
      }
    },
    {
      "type": "Feature",
      "properties": {
        "name": "Oregairu: Kasai Rinkai Park - Tokyo Sea Life Park 1",
        "image": "https://files.nils.moe/www/nalsai.de/blog/seichi/oregairu/_/Yahari%20Ore%20no%20Seishun%20LoveCome%20wa%20Machigatte%20Iru.%20Zoku%20-%2013%20-%2009m13s511t.jpg",
        "link": "https://en.nalsai.de/blog/seichi/oregairu/#kasai-rinkai-park"
      },
      "geometry": {
        "type": "Point",
        "coordinates": [
          139.86181714771593,
          35.64015331821779
        ]
      }
    },
    {
      "type": "Feature",
      "properties": {
        "name": "Oregairu: Kasai Rinkai Park - Tokyo Sea Life Park 2",
        "image": "https://files.nils.moe/www/nalsai.de/blog/seichi/oregairu/_/Yahari%20Ore%20no%20Seishun%20LoveCome%20wa%20Machigatte%20Iru.%20Zoku%20-%2013%20-%2009m22s687t.jpg",
        "link": "https://en.nalsai.de/blog/seichi/oregairu/#kasai-rinkai-park"
      },
      "geometry": {
        "type": "Point",
        "coordinates": [
          139.8619417227825,
          35.64023623810969
        ]
      }
    },
    {
      "type": "Feature",
      "properties": {
        "name": "Oregairu: Kasai Rinkai Park - Tokyo Sea Life Park 3",
        "image": "https://files.nils.moe/www/nalsai.de/blog/seichi/oregairu/_/Yahari%20Ore%20no%20Seishun%20LoveCome%20wa%20Machigatte%20Iru.%20Zoku%20-%2013%20-%2010m02s936t.jpg",
        "link": "https://en.nalsai.de/blog/seichi/oregairu/#kasai-rinkai-park"
      },
      "geometry": {
        "type": "Point",
        "coordinates": [
          139.86199818893687,
          35.64013618278943
        ]
      }
    },
    {
      "type": "Feature",
      "properties": {
        "name": "Oregairu: Kasai Rinkai Park - Tokyo Sea Life Park 4",
        "image": "https://files.nils.moe/www/nalsai.de/blog/seichi/oregairu/_/Yahari%20Ore%20no%20Seishun%20LoveCome%20wa%20Machigatte%20Iru.%20Zoku%20-%2013%20-%2014m29s452t.jpg",
        "link": "https://en.nalsai.de/blog/seichi/oregairu/#kasai-rinkai-park"
      },
      "geometry": {
        "type": "Point",
        "coordinates": [
          139.86213889276323,
          35.64012414543344
        ]
      }
    },
    {
      "type": "Feature",
      "properties": {
        "name": "Oregairu: Kasai Rinkai Park - Trackless Train",
        "image": "https://en.nalsai.de/blog/seichi/oregairu/Yahari%20Ore%20no%20Seishun%20LoveCome%20wa%20Machigatte%20Iru.%20Zoku%20-%2013%20-%2015m26s717t.avif",
        "link": "https://en.nalsai.de/blog/seichi/oregairu/#kasai-rinkai-park"
      },
      "geometry": {
        "type": "Point",
        "coordinates": [
          139.86051463131534,
          35.64278079245109
        ]
      }
    },
    {
      "type": "Feature",
      "properties": {
        "name": "Fruits Basket: Former Den-en-chofu Station Building",
        "image": "https://cdn-ak.f.st-hatena.com/images/fotolife/k/kimamanidance/20191103/20191103005814.jpg"
      },
      "geometry": {
        "type": "Point",
        "coordinates": [
          139.6668649768015, 35.59716770476236
        ]
      }
    },
    {
      "type": "Feature",
      "properties": {
        "name": "Fruits Basket: Former Den-en-chofu Station Building - Side",
        "image": "https://cdn-ak.f.st-hatena.com/images/fotolife/k/kimamanidance/20191103/20191103005830.jpg"
      },
      "geometry": {
        "type": "Point",
        "coordinates": [
          139.6669688865518, 35.59704041688326
        ]
      }
    },
    {
      "type": "Feature",
      "properties": {
        "name": "Fruits Basket: Fountain in Front of the Former Den-en-chofu Station Building",
        "image": "https://cdn-ak.f.st-hatena.com/images/fotolife/k/kimamanidance/20191103/20191103005918.jpg"
      },
      "geometry": {
        "type": "Point",
        "coordinates": [
          139.66701332857173, 35.597173945468626
        ]
      }
    },
    {
      "type": "Feature",
      "properties": {
        "name": "Fruits Basket: Maruko Bridge",
        "image": "https://cdn-ak.f.st-hatena.com/images/fotolife/k/kimamanidance/20191211/20191211161247.jpg"
      },
      "geometry": {
        "type": "Point",
        "coordinates": [
          139.66942384923206, 35.58573418156489
        ]
      }
    },
    {
      "type": "Feature",
      "properties": {
        "name": "Fruits Basket: Maruko Bridge 2",
        "image": "https://cdn-ak.f.st-hatena.com/images/fotolife/k/kimamanidance/20191211/20191211161336.jpg"
      },
      "geometry": {
        "type": "Point",
        "coordinates": [
          139.66991275455516, 35.586018484306685
        ]
      }
    },
    {
      "type": "Feature",
      "properties": {
        "name": "Fruits Basket: Maruko Bridge 3",
        "image": "https://livedoor.blogimg.jp/fly_ask/imgs/3/3/33d813d3.jpg",
        "link": "https://furaba-animeseichi.blog.jp/archives/16624225.html"
      },
      "geometry": {
        "type": "Point",
        "coordinates": [
          139.669302380793, 35.58620711871249
        ]
      }
    },
    {
      "type": "Feature",
      "properties": {
        "name": "Fruits Basket: Maruko Bridge 4",
        "image": "https://livedoor.blogimg.jp/fly_ask/imgs/5/4/54482e73.jpg",
        "link": "https://furaba-animeseichi.blog.jp/archives/16624225.html"
      },
      "geometry": {
        "type": "Point",
        "coordinates": [
          139.66931863220452, 35.5860320145553
        ]
      }
    },
    {
      "type": "Feature",
      "properties": {
        "name": "Fruits Basket: Gyokusendo Book Store",
        "image": "https://cdn-ak.f.st-hatena.com/images/fotolife/k/kimamanidance/20191211/20191211160856.jpg",
        "link": "https://kimamanidance.hatenablog.com/entry/2019/12/19/180000"
      },
      "geometry": {
        "type": "Point",
        "coordinates": [
          139.6618957521618, 35.59813813381133
        ]
      }
    },
    {
      "type": "Feature",
      "properties": {
        "name": "Fruits Basket: Road East of Gyokusendo Book Store",
        "image": "https://cdn-ak.f.st-hatena.com/images/fotolife/k/kimamanidance/20191211/20191211160525.jpg",
        "link": "https://kimamanidance.hatenablog.com/entry/2019/12/19/180000"
      },
      "geometry": {
        "type": "Point",
        "coordinates": [
          139.66187143515876, 35.59818736360064
        ]
      }
    },
    {
      "type": "Feature",
      "properties": {
        "name": "Fruits Basket: Gyokusendo Book Store 2",
        "image": "https://cdn-ak.f.st-hatena.com/images/fotolife/k/kimamanidance/20191211/20191211160913.jpg",
        "link": "https://kimamanidance.hatenablog.com/entry/2019/12/19/180000"
      },
      "geometry": {
        "type": "Point",
        "coordinates": [
          139.66177516915783, 35.598156496821545
        ]
      }
    },
    {
      "type": "Feature",
      "properties": {
        "name": "Fruits Basket: Akiba Black Pine",
        "image": "https://cdn-ak.f.st-hatena.com/images/fotolife/k/kimamanidance/20191211/20191211153649.jpg",
        "link": "https://kimamanidance.hatenablog.com/entry/2019/12/19/180000"
      },
      "geometry": {
        "type": "Point",
        "coordinates": [
          139.65923799276192, 35.59564111956207
        ]
      }
    },
    {
      "type": "Feature",
      "properties": {
        "name": "Fruits Basket: Hōrai Park Street",
        "image": "https://cdn-ak.f.st-hatena.com/images/fotolife/k/kimamanidance/20191104/20191104153840.jpg",
        "link": "https://kimamanidance.hatenablog.com/entry/2019/12/18/180000"
      },
      "geometry": {
        "type": "Point",
        "coordinates": [
          139.66361855383855, 35.59441814409177
        ]
      }
    },
    {
      "type": "Feature",
      "properties": {
        "name": "Fruits Basket: Hōrai Park South East Entrance",
        "image": "https://cdn-ak.f.st-hatena.com/images/fotolife/k/kimamanidance/20191104/20191104153333.jpg",
        "link": "https://kimamanidance.hatenablog.com/entry/2019/12/18/180000"
      },
      "geometry": {
        "type": "Point",
        "coordinates": [
          139.66504757185012, 35.59437508872899
        ]
      }
    },
    {
      "type": "Feature",
      "properties": {
        "name": "Fruits Basket: Street along the Train Tracks 1",
        "image": "https://cdn-ak.f.st-hatena.com/images/fotolife/k/kimamanidance/20191104/20191104152403.jpg",
        "link": "https://kimamanidance.hatenablog.com/entry/2019/12/18/180000"
      },
      "geometry": {
        "type": "Point",
        "coordinates": [
          139.6673469376963, 35.5950309506068
        ]
      }
    },
    {
      "type": "Feature",
      "properties": {
        "name": "Fruits Basket: Street along the Train Tracks 2",
        "image": "https://cdn-ak.f.st-hatena.com/images/fotolife/k/kimamanidance/20191104/20191104152436.jpg",
        "link": "https://kimamanidance.hatenablog.com/entry/2019/12/18/180000"
      },
      "geometry": {
        "type": "Point",
        "coordinates": [
          139.6673014510052, 35.594823100226996
        ]
      }
    },
    {
      "type": "Feature",
      "properties": {
        "name": "Fruits Basket: Street along the Train Tracks 3",
        "image": "https://livedoor.blogimg.jp/fly_ask/imgs/6/7/67522ca3.jpg",
        "link": "https://furaba-animeseichi.blog.jp/archives/16624225.html"
      },
      "geometry": {
        "type": "Point",
        "coordinates": [
          139.66716725161606, 35.59483272064571
        ]
      }
    },
    {
      "type": "Feature",
      "properties": {
        "name": "Fruits Basket: Street along the Train Tracks 3 - T-Junction",
        "image": "https://cdn-ak.f.st-hatena.com/images/fotolife/k/kimamanidance/20191104/20191104152538.jpg",
        "link": "https://kimamanidance.hatenablog.com/entry/2019/12/18/180000"
      },
      "geometry": {
        "type": "Point",
        "coordinates": [
          139.66736591308174, 35.59483652884797
        ]
      }
    },
    {
      "type": "Feature",
      "properties": {
        "name": "Fruits Basket: 4-chome 1",
        "image": "https://livedoor.blogimg.jp/fly_ask/imgs/e/5/e545e77f.jpg",
        "link": "https://furaba-animeseichi.blog.jp/archives/16624225.html"
      },
      "geometry": {
        "type": "Point",
        "coordinates": [
          139.6612102982113, 35.59352504202173
        ]
      }
    },
    {
      "type": "Feature",
      "properties": {
        "name": "Fruits Basket: 4-chome Stairs",
        "image": "https://livedoor.blogimg.jp/fly_ask/imgs/4/3/4386af5b.jpg",
        "link": "https://furaba-animeseichi.blog.jp/archives/16624225.html"
      },
      "geometry": {
        "type": "Point",
        "coordinates": [
          139.66114322412963, 35.59336884692854
        ]
      }
    },
    {
      "type": "Feature",
      "properties": {
        "name": "Fruits Basket: 4-chome Corner",
        "image": "https://livedoor.blogimg.jp/fly_ask/imgs/2/8/28ff77f0.jpg",
        "link": "https://furaba-animeseichi.blog.jp/archives/16624225.html"
      },
      "geometry": {
        "type": "Point",
        "coordinates": [
          139.6673661149677955286591308174, 35.59346057763016
        ]
      }
    },
    {
      "type": "Feature",
      "properties": {
        "name": "Fruits Basket: 4-chome 2",
        "image": "https://livedoor.blogimg.jp/fly_ask/imgs/d/f/dfd2834f.jpg",
        "link": "https://furaba-animeseichi.blog.jp/archives/16624225.html"
      },
      "geometry": {
        "type": "Point",
        "coordinates": [
          139.66125522683552, 35.59341108252701
        ]
      }
    },
    {
      "type": "Feature",
      "properties": {
        "name": "Fruits Basket: 4-chome 3",
        "image": "https://livedoor.blogimg.jp/fly_ask/imgs/3/e/3ecd38e0.jpg",
        "link": "https://furaba-animeseichi.blog.jp/archives/16624225.html"
      },
      "geometry": {
        "type": "Point",
        "coordinates": [
          139.66107691313633, 35.59330645326181
        ]
      }
    },
    {
      "type": "Feature",
      "properties": {
        "name": "Dragon Maid: Koshigaya Station West Exit",
        "image": "https://survive-tactics.com/wp-content/uploads/2018/09/kosigaya_nishiguchi1.png",
        "link": "https://survive-tactics.com/2018/09/24/maidragon_seichizyunnrei/"
      },
      "geometry": {
        "type": "Point",
        "coordinates": [
          139.7852877228059, 35.8884420101956
        ]
      }
    },
    {
      "type": "Feature",
      "properties": {
        "name": "Dragon Maid: Koshigaya Station West Exit Street",
        "image": "https://survive-tactics.com/wp-content/uploads/2018/09/kyukobayashi2.png",
        "link": "https://survive-tactics.com/2018/09/24/maidragon_seichizyunnrei/"
      },
      "geometry": {
        "type": "Point",
        "coordinates": [
          139.78535286346758, 35.88800730205599
        ]
      }
    },
    {
      "type": "Feature",
      "properties": {
        "name": "Dragon Maid: Crosswalk near Koshigaya Station West Exit",
        "image": "https://survive-tactics.com/wp-content/uploads/2018/09/kyukobayashi1.png",
        "link": "https://survive-tactics.com/2018/09/24/maidragon_seichizyunnrei/"
      },
      "geometry": {
        "type": "Point",
        "coordinates": [
          139.7844453443772, 35.887893613986044
        ]
      }
    },
    {
      "type": "Feature",
      "properties": {
        "name": "Dragon Maid: Koshigaya Station East Exit from Escalator",
        "image": "https://survive-tactics.com/wp-content/uploads/2018/09/higashiguchi1.png",
        "link": "https://survive-tactics.com/2018/09/24/maidragon_seichizyunnrei/"
      },
      "geometry": {
        "type": "Point",
        "coordinates": [
          139.78650181180768, 35.88904738892097
        ]
      }
    },
    {
      "type": "Feature",
      "properties": {
        "name": "Dragon Maid: Koshigaya East Exit Bus Stop",
        "image": "https://survive-tactics.com/wp-content/uploads/2018/09/higashiguchi3.png",
        "link": "https://survive-tactics.com/2018/09/24/maidragon_seichizyunnrei/"
      },
      "geometry": {
        "type": "Point",
        "coordinates": [
          139.78610533170848, 35.88862666092951
        ]
      }
    },
    {
      "type": "Feature",
      "properties": {
        "name": "Dragon Maid: Koshigaya Station East Exit View",
        "image": "https://survive-tactics.com/wp-content/uploads/2018/09/higashiguchi1.png",
        "link": "https://survive-tactics.com/2018/09/24/maidragon_seichizyunnrei/"
      },
      "geometry": {
        "type": "Point",
        "coordinates": [
          139.79384634086372, 35.88835099190968
        ]
      }
    },
    {
      "type": "Feature",
      "properties": {
        "name": "Dragon Maid: Koshigaya Station East Exit",
        "image": "https://survive-tactics.com/wp-content/uploads/2018/09/higashiguchi7.png",
        "link": "https://survive-tactics.com/2018/09/24/maidragon_seichizyunnrei/"
      },
      "geometry": {
        "type": "Point",
        "coordinates": [
          139.78627080394972, 35.88834825839703
        ]
      }
    },
    {
      "type": "Feature",
      "properties": {
        "name": "Dragon Maid: Saitama Resona Bank Koshigaya (Oborozuka Bank)",
        "image": "https://survive-tactics.com/wp-content/uploads/2018/09/faf5.png",
        "link": "https://survive-tactics.com/2018/09/24/maidragon_seichizyunnrei/"
      },
      "geometry": {
        "type": "Point",
        "coordinates": [
          139.78791058071522, 35.889045909631946
        ]
      }
    },
    {
      "type": "Feature",
      "properties": {
        "name": "Dragon Maid: Real Estate Agency (Oborozuka Residence)",
        "image": "https://survive-tactics.com/wp-content/uploads/2018/09/faf6.png",
        "link": "https://survive-tactics.com/2018/09/24/maidragon_seichizyunnrei/"
      },
      "geometry": {
        "type": "Point",
        "coordinates": [
          139.7880515706762, 35.88908596222865
        ]
      }
    },
    {
      "type": "Feature",
      "properties": {
        "name": "Dragon Maid: Dentist / STORY Hair Salon",
        "image": "https://survive-tactics.com/wp-content/uploads/2018/09/faf4.png",
        "link": "https://survive-tactics.com/2018/09/24/maidragon_seichizyunnrei/",
        "description": "It used to be a dentist like in the anime, but now it's a hair salon."
      },
      "geometry": {
        "type": "Point",
        "coordinates": [
          139.7889717015642, 35.88920623316265
        ]
      }
    },
    {
      "type": "Feature",
      "properties": {
        "name": "Dragon Maid: East of Shinheiwa Bridge",
        "image": "https://survive-tactics.com/wp-content/uploads/2018/09/faf1.png",
        "link": "https://survive-tactics.com/2018/09/24/maidragon_seichizyunnrei/"
      },
      "geometry": {
        "type": "Point",
        "coordinates": [
          139.79303258618842, 35.890651286906255
        ]
      }
    },
    {
      "type": "Feature",
      "properties": {
        "name": "Dragon Maid: Shinheiwa Bridge",
        "image": "https://survive-tactics.com/wp-content/uploads/2018/09/faf2.png",
        "link": "https://survive-tactics.com/2018/09/24/maidragon_seichizyunnrei/"
      },
      "geometry": {
        "type": "Point",
        "coordinates": [
          139.79286238383204, 35.8909516201695
        ]
      }
    },
    {
      "type": "Feature",
      "properties": {
        "name": "Dragon Maid: Wisteria at the North-West End of Shinheiwa Bridge",
        "image": "https://survive-tactics.com/wp-content/uploads/2018/09/faf3.png",
        "link": "https://survive-tactics.com/2018/09/24/maidragon_seichizyunnrei/"
      },
      "geometry": {
        "type": "Point",
        "coordinates": [
          139.7916357787916, 35.89057460959184
        ]
      }
    },
    {
      "type": "Feature",
      "properties": {
        "name": "Dragon Maid: Higashikoshigaya Botan Park",
        "image": "https://survive-tactics.com/wp-content/uploads/2018/09/park1-1.png",
        "link": "https://survive-tactics.com/2018/09/24/maidragon_seichizyunnrei/",
        "description": "Botan is the Japanese word for peony. (Skip if low on time.)"
      },
      "geometry": {
        "type": "Point",
        "coordinates": [
          139.7989268969512, 35.890399573755
        ]
      }
    },
    {
      "type": "Feature",
      "properties": {
        "name": "Dragon Maid: Higashikoshigaya Botan Park Slide",
        "image": "https://survive-tactics.com/wp-content/uploads/2018/09/park1-2.png",
        "link": "https://survive-tactics.com/2018/09/24/maidragon_seichizyunnrei/"
      },
      "geometry": {
        "type": "Point",
        "coordinates": [
          139.79914213067752, 35.89030349572429
        ]
      }
    },
    {
      "type": "Feature",
      "properties": {
        "name": "Dragon Maid: Higashikoshigaya Botan Park Bench",
        "image": "https://survive-tactics.com/wp-content/uploads/2018/09/park1-3.png",
        "link": "https://survive-tactics.com/2018/09/24/maidragon_seichizyunnrei/"
      },
      "geometry": {
        "type": "Point",
        "coordinates": [
          139.7992571064733, 35.89035909933217
        ]
      }
    },
    {
      "type": "Feature",
      "properties": {
        "name": "Dragon Maid: Higashikoshigaya Botan Park Grass Field",
        "image": "https://survive-tactics.com/wp-content/uploads/2018/09/park1-4.png",
        "link": "https://survive-tactics.com/2018/09/24/maidragon_seichizyunnrei/"
      },
      "geometry": {
        "type": "Point",
        "coordinates": [
          139.79941465509344, 35.89013095039582
        ]
      }
    },
    {
      "type": "Feature",
      "properties": {
        "name": "Dragon Maid: Higashikoshigaya Nanachome Shiinoki Park (South Side)",
        "image": "https://survive-tactics.com/wp-content/uploads/2018/09/park2-1.png",
        "link": "https://survive-tactics.com/2018/09/24/maidragon_seichizyunnrei/"
      },
      "geometry": {
        "type": "Point",
        "coordinates": [
          139.80044779303446, 35.89063215768744
        ]
      }
    },
    {
      "type": "Feature",
      "properties": {
        "name": "Dragon Maid: Higashikoshigaya Nanachome Shiinoki Park",
        "image": "https://survive-tactics.com/wp-content/uploads/2018/09/park2-3.png",
        "link": "https://survive-tactics.com/2018/09/24/maidragon_seichizyunnrei/"
      },
      "geometry": {
        "type": "Point",
        "coordinates": [
          139.80045340081003, 35.89090156326962
        ]
      }
    },
    {
      "type": "Feature",
      "properties": {
        "name": "Dragon Maid: Way to School",
        "image": "https://survive-tactics.com/wp-content/uploads/2018/09/tugaku.png",
        "link": "https://survive-tactics.com/2018/09/24/maidragon_seichizyunnrei/"
      },
      "geometry": {
        "type": "Point",
        "coordinates": [
          139.80430969629953, 35.89168543935159
        ]
      }
    },
    {
      "type": "Feature",
      "properties": {
        "name": "Dragon Maid: Motoara River 1",
        "image": "https://survive-tactics.com/wp-content/uploads/2018/09/river1.png",
        "link": "https://survive-tactics.com/2018/09/24/maidragon_seichizyunnrei/",
        "description": "Proportions don't match so the photo will be a bit off."
      },
      "geometry": {
        "type": "Point",
        "coordinates": [
          139.7923191453093, 35.88873525727121
        ]
      }
    },
    {
      "type": "Feature",
      "properties": {
        "name": "Dragon Maid: Motoara River 2",
        "image": "https://survive-tactics.com/wp-content/uploads/2018/09/river3.png",
        "link": "https://survive-tactics.com/2018/09/24/maidragon_seichizyunnrei/"
      },
      "geometry": {
        "type": "Point",
        "coordinates": [
          139.79384634086372, 35.88835099190968
        ]
      }
    },
    {
      "type": "Feature",
      "properties": {
        "name": "Dragon Maid: Motoara River 3",
        "image": "https://survive-tactics.com/wp-content/uploads/2018/09/river2.png",
        "link": "https://survive-tactics.com/2018/09/24/maidragon_seichizyunnrei/"
      },
      "geometry": {
        "type": "Point",
        "coordinates": [
          139.79522241946881, 35.88778862738444
        ]
      }
    },
    {
      "type": "Feature",
      "properties": {
        "name": "Cafe Stella: Nagoya Station",
        "image": "https://cdn-ak.f.st-hatena.com/images/fotolife/y/yuiyu22/20210817/20210817215359.jpg",
        "link": "https://rinnow.hatenablog.com/entry/stella"
      },
      "geometry": {
        "type": "Point",
        "coordinates": [
          136.88399850293274, 35.17187041479474
        ]
      }
    },
    {
      "type": "Feature",
      "properties": {
        "name": "Cafe Stella: Hijiechō Street",
        "image": "https://cdn-ak.f.st-hatena.com/images/fotolife/y/yuiyu22/20210817/20210817215409.jpg",
        "link": "https://rinnow.hatenablog.com/entry/stella"
      },
      "geometry": {
        "type": "Point",
        "coordinates": [
          136.88543058371985, 35.1694666035802
        ]
      }
    },
    {
      "type": "Feature",
      "properties": {
        "name": "Cafe Stella: Ōtsu Street",
        "image": "https://cdn-ak.f.st-hatena.com/images/fotolife/y/yuiyu22/20210817/20210817215418.jpg",
        "link": "https://rinnow.hatenablog.com/entry/stella"
      },
      "geometry": {
        "type": "Point",
        "coordinates": [
          136.90697654169196, 35.16426480447924
        ]
      }
    },
    {
      "type": "Feature",
      "properties": {
        "name": "Cafe Stella: Nadya Park",
        "image": "https://cdn-ak.f.st-hatena.com/images/fotolife/y/yuiyu22/20210817/20210817215505.jpg",
        "link": "https://rinnow.hatenablog.com/entry/stella"
      },
      "geometry": {
        "type": "Point",
        "coordinates": [
          136.90527824448566, 35.165374239836254
        ]
      }
    },
    {
      "type": "Feature",
      "properties": {
        "name": "Cafe Stella: Wakamiya Hachiman Shrine",
        "image": "https://cdn-ak.f.st-hatena.com/images/fotolife/y/yuiyu22/20210817/20210817215429.jpg",
        "link": "https://rinnow.hatenablog.com/entry/stella"
      },
      "geometry": {
        "type": "Point",
        "coordinates": [
          136.90331380227164, 35.16303601685916
        ]
      }
    },
    {
      "type": "Feature",
      "properties": {
        "name": "Cafe Stella: Osaka University Toyonaka Campus",
        "image": "https://cdn-ak.f.st-hatena.com/images/fotolife/y/yuiyu22/20210817/20210817215439.jpg",
        "link": "https://rinnow.hatenablog.com/entry/stella"
      },
      "geometry": {
        "type": "Point",
        "coordinates": [
          135.45359463229238, 34.80589270692499
        ]
      }
    },
    {
      "type": "Feature",
      "properties": {
        "name": "Cafe Stella: Universal City",
        "image": "https://cdn-ak.f.st-hatena.com/images/fotolife/y/yuiyu22/20210817/20210817215454.jpg",
        "link": "https://rinnow.hatenablog.com/entry/stella"
      },
      "geometry": {
        "type": "Point",
        "coordinates": [
          135.437127635988, 34.66811311474616
        ]
      }
    },
    {
      "type": "Feature",
      "properties": {
        "name": "Fate: Shoraitei Makuhari Seaside Park",
        "image": "https://files.nils.moe/www/nalsai.de/blog/seichi/TODO/Fatestay%20night%20REMASTERED/Emiya%20Household/Backyard/o%E5%BA%AD-%28%E6%98%BC%29.png",
        "link": "https://torusu7.hatenablog.com/entry/2023/09/21/233212",
        "description": "Emiya Residence"
      },
      "geometry": {
        "type": "Point",
        "coordinates": [
          140.03958090183124, 35.642882802480415
        ]
      }
    },
    {
      "type": "Feature",
      "properties": {
        "name": "Fate: Kaihimmakuhari Station South Exit",
        "image": "https://files.nils.moe/www/nalsai.de/blog/seichi/TODO/Fatestay%20night%20REMASTERED/Shinto/Central%20Shinto/o%E9%A7%85%E5%89%8D%E3%83%91%E3%83%BC%E3%82%AF-%28%E6%98%BC%29.png",
        "link": "https://home.gamer.com.tw/artwork.php?sn=5718048"
      },
      "geometry": {
        "type": "Point",
        "coordinates": [
          140.04180727761195, 35.6481621845068
        ]
      }
    },
    {
      "type": "Feature",
      "properties": {
        "name": "Fate: M Bay Point Makuhari Building",
        "image": "https://files.nils.moe/www/nalsai.de/blog/seichi/TODO/Fatestay%20night%20REMASTERED/Shinto/Building%20%28Outside%29/o%E3%83%93%E3%83%AB%E8%A1%97-%28%E6%98%BC%29.png",
        "link": "https://home.gamer.com.tw/artwork.php?sn=5718048"
      },
      "geometry": {
        "type": "Point",
        "coordinates": [
          140.0394247079622, 35.65178426441894
        ]
      }
    },
    {
      "type": "Feature",
      "properties": {
        "name": "Fate: Sakuragaoka, Tama City, Tokyo",
        "image": "https://files.nils.moe/www/nalsai.de/blog/seichi/TODO/Fatestay%20night%20REMASTERED/Miyama/Intersection/o%E4%BA%A4%E5%B7%AE%E7%82%B9-%28%E6%98%BC%29.png",
        "link": "https://kimamanidance.hatenablog.com/entry/2020/05/16/180000",
        "description": "At the other end of Iroha-zaka Street"
      },
      "geometry": {
        "type": "Point",
        "coordinates": [
          139.44000444073222, 35.637631716218024
        ]
      }
    },
    {
      "type": "Feature",
      "properties": {
        "name": "Fate: Japan Christian Junior College",
        "image": "https://files.nils.moe/www/nalsai.de/blog/seichi/TODO/Fatestay%20night%20REMASTERED/Homurahara%20Academy/Entrance/o%E5%AD%A6%E5%9C%92%E6%AD%A3%E9%96%80-%28%E6%98%BC%29.png",
        "description": "The college was demolished in 2009 and the site is now filled with rows of detached houses."
      },
      "geometry": {
        "type": "Point",
        "coordinates": [
          140.15077963342276, 35.65722782701316
        ]
      }
    },
    {
      "type": "Feature",
      "properties": {
        "name": "Fate: Plena Makuhari 2F",
        "image": "https://files.nils.moe/www/nalsai.de/blog/seichi/TODO/Fatestay%20night%20REMASTERED/Shinto/i%E6%96%B0%E9%83%BD_%E3%82%B7%E3%83%A7%E3%83%83%E3%83%94%E3%83%B3%E3%82%B0%E3%83%A2%E3%83%BC%E3%83%AB.png",
        "link": "https://www.google.com/maps/d/u/0/viewer?hl=ja&mid=1xFHW6NyXTLerfvGu_fP9b4qpXEWFBF5m&ll=35.647670449938026%2C140.04058998034674&z=20",
        "description": "mirrored"
      },
      "geometry": {
        "type": "Point",
        "coordinates": [
          140.15077963342276, 35.65722782701316
        ]
      }
    },
    {
      "type": "Feature",
      "properties": {
        "name": "Fate: Umeyashiki Street",
        "image": "https://files.nils.moe/www/nalsai.de/blog/seichi/TODO/Fatestay%20night%20REMASTERED/Miyama/Shopping%20District/o%E5%95%86%E5%BA%97%E8%A1%97-%28%E6%98%BC%29.png",
        "link": "https://kimamanidance.hatenablog.com/entry/2021/02/21/180000"
      },
      "geometry": {
        "type": "Point",
        "coordinates": [
          139.727719595335, 35.56740668534043
        ]
      }
    },
    {
      "type": "Feature",
      "properties": {
        "name": "Fate: Iroha-zaka Street",
        "image": "https://files.nils.moe/www/nalsai.de/blog/seichi/TODO/Fatestay%20night%20REMASTERED/Miyama/To%20Homurahara/o%E6%A0%A1%E8%88%8E%E3%81%AB%E7%B6%9A%E3%81%8F%E9%81%93-%28%E6%98%BC%29.png",
        "link": "https://home.gamer.com.tw/artwork.php?sn=5718048",
        "description": "The same street is also a holy place for the Ghibli movie \"Whisper of the Heart\"."
      },
      "geometry": {
        "type": "Point",
        "coordinates": [
          139.44619319710065, 35.646109012755176
        ]
      }
    },
    {
      "type": "Feature",
      "properties": {
        "name": "Fate: Kobe Bridge from Port Island Kita Park",
        "image": "https://files.nils.moe/www/nalsai.de/blog/seichi/TODO/Fatestay%20night%20REMASTERED/Fuyuki%20Bridge/Riverside%20Park%20A/o%E5%86%AC%E6%9C%A8%E5%A4%A7%E6%A9%8B%E8%A2%82%E3%81%AE%E5%85%AC%E5%9C%921-%28%E6%98%BC%29.png",
        "link": "https://torusu7.hatenablog.com/entry/2018/12/06/120157"
      },
      "geometry": {
        "type": "Point",
        "coordinates": [
          135.2042098097839, 34.67666861549114
        ]
      }
    },
    {
      "type": "Feature",
      "properties": {
        "name": "Fate: Kobe Bridge from Port Island Kita Park 2",
        "image": "https://files.nils.moe/www/nalsai.de/blog/seichi/TODO/Fatestay%20night%20REMASTERED/Fuyuki%20Bridge/o%E6%A9%8B%E3%81%8C%E8%A6%8B%E3%81%88%E3%82%8B%E5%B7%9D%E3%81%B9%E3%82%8A-%28%E6%98%BC%29.png",
        "link": "https://torusu7.hatenablog.com/entry/2018/12/06/120157"
      },
      "geometry": {
        "type": "Point",
        "coordinates": [
          135.2039368569459, 34.677195281042536
        ]
      }
    },
    {
      "type": "Feature",
      "properties": {
        "name": "Fate: Port Island Kita Park",
        "image": "https://files.nils.moe/www/nalsai.de/blog/seichi/TODO/Fatestay%20night%20REMASTERED/Fuyuki%20Bridge/Riverside%20Park%20B/o%E5%86%AC%E6%9C%A8%E5%A4%A7%E6%A9%8B%E8%A2%82%E3%81%AE%E5%85%AC%E5%9C%922-%28%E5%A4%9C%29.png",
        "link": "https://torusu7.hatenablog.com/entry/2018/12/06/120157",
        "description": "In real life the bridge is in the background and the shrubs are behind the camera."
      },
      "geometry": {
        "type": "Point",
        "coordinates": [
          135.20413506248755, 34.67706272437965
        ]
      }
    },
    {
      "type": "Feature",
      "properties": {
        "name": "Fate: Kobe Bridge Sidewalk (towards Kobe)",
        "image": "https://files.nils.moe/www/nalsai.de/blog/seichi/TODO/Fatestay%20night%20REMASTERED/Fuyuki%20Bridge/Towards%20Shinto/o%E6%AD%A9%E9%81%93%E6%A9%8B%28%E8%A1%8C%E3%81%8D%29-%28%E6%98%BC%29.png",
        "link": "https://torusu7.hatenablog.com/entry/2018/12/06/120157"
      },
      "geometry": {
        "type": "Point",
        "coordinates": [
          135.2039970039345, 34.67782847915159
        ]
      }
    },
    {
      "type": "Feature",
      "properties": {
        "name": "Fate: Kobe Bridge Sidewalk (towards Port Island)",
        "image": "https://files.nils.moe/www/nalsai.de/blog/seichi/TODO/Fatestay%20night%20REMASTERED/Fuyuki%20Bridge/Towards%20Miyama/o%E6%AD%A9%E9%81%93%E6%A9%8B%28%E5%B8%B0%E3%82%8A%29-%28%E6%98%BC%29.png",
        "link": "https://torusu7.hatenablog.com/entry/2018/12/06/120157"
      },
      "geometry": {
        "type": "Point",
        "coordinates": [
          135.20334419531284, 34.67860432594945
        ]
      }
    },
    {
      "type": "Feature",
      "properties": {
        "name": "Fate: Kitano Street",
        "image": "https://files.nils.moe/www/nalsai.de/blog/seichi/TODO/Fatestay%20night%20REMASTERED/Shinto/To%20Fuyuki%20Church/o%E6%95%99%E4%BC%9A%E4%BB%98%E8%BF%91%E3%81%AE%E8%A1%97%E4%B8%A6-%28%E6%9B%87%29.png",
        "link": "https://torusu7.hatenablog.com/entry/2018/12/06/120157"
      },
      "geometry": {
        "type": "Point",
        "coordinates": [
          135.19420907297416, 34.70311830827112
        ]
      }
    },
    {
      "type": "Feature",
      "properties": {
        "name": "Fate: Fudo-Zaka Street",
        "image": "https://files.nils.moe/www/nalsai.de/blog/seichi/TODO/Fatestay%20night%20REMASTERED/Miyama/Neighbourhood/o%E9%81%A0%E5%9D%82%E9%82%B8%E4%BB%98%E8%BF%91%E3%81%AE%E8%A1%97%E4%B8%A6-%28%E6%98%BC%29.png",
        "link": "https://torusu7.hatenablog.com/entry/2023/09/21/233212"
      },
      "geometry": {
        "type": "Point",
        "coordinates": [
          135.1920942068314, 34.70187437537667
        ]
      }
    },
    {
      "type": "Feature",
      "properties": {
        "name": "Fate: Oda Family Nagaya-mon Gate",
        "image": "https://files.nils.moe/www/nalsai.de/blog/seichi/TODO/Fatestay%20night%20REMASTERED/Emiya%20Household/Entrance%20%28Outside%29/o%E8%A1%9B%E5%AE%AE%E9%82%B8%E5%A4%96%E8%A6%B3-%28%E6%98%BC%29.png",
        "description": "Emiya Residence Outer Wall"
      },
      "geometry": {
        "type": "Point",
        "coordinates": [
          134.98884206237176, 34.650195656072476
        ]
      }
    },
    {
      "type": "Feature",
      "properties": {
        "name": "Fate: Hyogo Prefectural Archery Dojo",
        "image": "https://files.nils.moe/www/nalsai.de/blog/seichi/TODO/Fatestay%20night%20REMASTERED/Homurahara%20Academy/Archery%20Dojo%20%28Outside%29/o%E5%BC%93%E9%81%93%E5%A0%B4%E5%89%8D-%28%E6%98%BC%29.png",
        "link": "https://torusu7.hatenablog.com/entry/2023/09/21/233212"
      },
      "geometry": {
        "type": "Point",
        "coordinates": [
          134.99707990190504, 34.65888314935968
        ]
      }
    },
    {
      "type": "Feature",
      "properties": {
        "name": "Fate: Weathercock House",
        "image": "https://files.nils.moe/www/nalsai.de/blog/seichi/TODO/Fatestay%20night%20REMASTERED/Tohsaka%20Manor/Outside/o%E9%81%A0%E5%9D%82%E9%82%B8%E5%A4%96%E8%A6%B3-%28%E6%98%BC%29.png",
        "link": "https://torusu7.hatenablog.com/entry/2023/09/21/233212",
        "description": "Tohsaka Residence"
      },
      "geometry": {
        "type": "Point",
        "coordinates": [
          135.1895776010249, 34.701341470504715
        ]
      }
    },
    {
      "type": "Feature",
      "properties": {
        "name": "Fate: Uroko House",
        "image": "https://files.nils.moe/www/nalsai.de/blog/seichi/TODO/Fatestay%20night%20REMASTERED/Tohsaka%20Manor/Outside/o%E9%81%A0%E5%9D%82%E9%82%B8%E5%A4%96%E8%A6%B3-%28%E6%98%BC%29.png",
        "description": "Matou Residence"
      },
      "geometry": {
        "type": "Point",
        "coordinates": [
          135.19069997380848, 34.7028391772065
        ]
      }
    },
    {
      "type": "Feature",
      "properties": {
        "name": "Fate: Uroko House (Interior)",
        "image": "https://files.nils.moe/www/nalsai.de/blog/seichi/TODO/Fatestay%20night%20REMASTERED/Tohsaka%20Manor/Living%20Room/i%E9%81%A0%E5%9D%82%E9%82%B8%E5%B1%85%E9%96%93.png",
        "description": "Interior of the Tohsaka Residence"
      },
      "geometry": {
        "type": "Point",
        "coordinates": [
          135.190571915089, 34.70290064494094
        ]
      }
    }
  ]
}