{
  "type": "FeatureCollection",
  "features": [
    {
      "type": "Feature",
      "properties": {
        "name": "Tsukihime: Yokota Clinic",
        "image": "https://en.nalsai.de/blog/seichi/tsukihime/bg_67.avif",
        "icon": "red",
        "description": "An usual old \"german-style\" building in Koshigaya. It used to be a clinic and before that a post office. https://www.youtube.com/watch?v=uskihGiO2nI https://retropost.net/koshigaya/"
      },
      "geometry": {
        "type": "Point",
        "coordinates": [
          139.78768996917856,
          35.89155773282753
        ]
      }
    },
    {
      "type": "Feature",
      "properties": {
        "name": "Riddle Joker: Genbaku Dome-Mae Station (Hiroshima)",
        "image": "https://cdn-ak.f.st-hatena.com/images/fotolife/y/yuiyu22/20210221/20210221200008.jpg",
        "link": "https://rinnow.hatenablog.com/entry/riddle/",
        "icon": "red"
      },
      "geometry": {
        "type": "Point",
        "coordinates": [
          132.45422773207113,
          34.39611977088741
        ]
      }
    },
    {
      "type": "Feature",
      "properties": {
        "name": "Tenshi☆Souzou RE-BOOT!: Takatsuki Station (Takatsuki, Osaka)",
        "image": "https://cdn-ak.f.st-hatena.com/images/fotolife/y/yuiyu22/20230327/20230327145922.png",
        "link": "https://rinnow.hatenablog.com/entry/ten_sz",
        "icon": "tenshisz"
      },
      "geometry": {
        "type": "Point",
        "coordinates": [
          135.61889284902227,
          34.8516868013059
        ]
      }
    },
    {
      "type": "Feature",
      "properties": {
        "name": "Tenshi☆Souzou RE-BOOT!: Nigawagokayamacho (Nishinomiya)",
        "image": "https://cdn-ak.f.st-hatena.com/images/fotolife/y/yuiyu22/20230327/20230327145935.png",
        "link": "https://rinnow.hatenablog.com/entry/ten_sz",
        "icon": "tenshisz"
      },
      "geometry": {
        "type": "Point",
        "coordinates": [
          135.3486825375915,
          34.771365852936896
        ]
      }
    },
    {
      "type": "Feature",
      "properties": {
        "name": "Tenshi☆Souzou RE-BOOT!: Hankyu Nishinomiya Gardens (Nishinomiya)",
        "image": "https://cdn-ak.f.st-hatena.com/images/fotolife/y/yuiyu22/20230505/20230505220926.png",
        "link": "https://rinnow.hatenablog.com/entry/ten_sz",
        "icon": "tenshisz"
      },
      "geometry": {
        "type": "Point",
        "coordinates": [
          135.35989528822822,
          34.744062736394326
        ]
      }
    },
    {
      "type": "Feature",
      "properties": {
        "name": "Tenshi☆Souzou RE-BOOT!: Kobe Fruit Flower Park Ozo (Kobe)",
        "image": "https://cdn-ak.f.st-hatena.com/images/fotolife/y/yuiyu22/20230327/20230327145950.png",
        "link": "https://rinnow.hatenablog.com/entry/ten_sz",
        "icon": "tenshisz"
      },
      "geometry": {
        "type": "Point",
        "coordinates": [
          135.19174517723363,
          34.84775978538305
        ]
      }
    },
    {
      "type": "Feature",
      "properties": {
        "name": "Dragon Maid: Koshigaya Station West Exit",
        "image": "https://survive-tactics.com/wp-content/uploads/2018/09/kosigaya_nishiguchi1.png",
        "link": "https://survive-tactics.com/2018/09/24/maidragon_seichizyunnrei/"
      },
      "geometry": {
        "type": "Point",
        "coordinates": [
          139.7852877228059,
          35.8884420101956
        ]
      }
    },
    {
      "type": "Feature",
      "properties": {
        "name": "Dragon Maid: Koshigaya Station West Exit Street",
        "image": "https://survive-tactics.com/wp-content/uploads/2018/09/kyukobayashi2.png",
        "link": "https://survive-tactics.com/2018/09/24/maidragon_seichizyunnrei/"
      },
      "geometry": {
        "type": "Point",
        "coordinates": [
          139.78535286346758,
          35.88800730205599
        ]
      }
    },
    {
      "type": "Feature",
      "properties": {
        "name": "Dragon Maid: Crosswalk near Koshigaya Station West Exit",
        "image": "https://survive-tactics.com/wp-content/uploads/2018/09/kyukobayashi1.png",
        "link": "https://survive-tactics.com/2018/09/24/maidragon_seichizyunnrei/"
      },
      "geometry": {
        "type": "Point",
        "coordinates": [
          139.7844453443772,
          35.887893613986044
        ]
      }
    },
    {
      "type": "Feature",
      "properties": {
        "name": "Dragon Maid: Koshigaya Station East Exit from Escalator",
        "image": "https://survive-tactics.com/wp-content/uploads/2018/09/higashiguchi1.png",
        "link": "https://survive-tactics.com/2018/09/24/maidragon_seichizyunnrei/"
      },
      "geometry": {
        "type": "Point",
        "coordinates": [
          139.78650181180768,
          35.88904738892097
        ]
      }
    },
    {
      "type": "Feature",
      "properties": {
        "name": "Dragon Maid: Koshigaya East Exit Bus Stop",
        "image": "https://survive-tactics.com/wp-content/uploads/2018/09/higashiguchi3.png",
        "link": "https://survive-tactics.com/2018/09/24/maidragon_seichizyunnrei/"
      },
      "geometry": {
        "type": "Point",
        "coordinates": [
          139.78610533170848,
          35.88862666092951
        ]
      }
    },
    {
      "type": "Feature",
      "properties": {
        "name": "Dragon Maid: Koshigaya Station East Exit View",
        "image": "https://survive-tactics.com/wp-content/uploads/2018/09/higashiguchi1.png",
        "link": "https://survive-tactics.com/2018/09/24/maidragon_seichizyunnrei/"
      },
      "geometry": {
        "type": "Point",
        "coordinates": [
          139.79384634086372,
          35.88835099190968
        ]
      }
    },
    {
      "type": "Feature",
      "properties": {
        "name": "Dragon Maid: Koshigaya Station East Exit",
        "image": "https://survive-tactics.com/wp-content/uploads/2018/09/higashiguchi7.png",
        "link": "https://survive-tactics.com/2018/09/24/maidragon_seichizyunnrei/"
      },
      "geometry": {
        "type": "Point",
        "coordinates": [
          139.78627080394972,
          35.88834825839703
        ]
      }
    },
    {
      "type": "Feature",
      "properties": {
        "name": "Dragon Maid: Saitama Resona Bank Koshigaya (Oborozuka Bank)",
        "image": "https://survive-tactics.com/wp-content/uploads/2018/09/faf5.png",
        "link": "https://survive-tactics.com/2018/09/24/maidragon_seichizyunnrei/"
      },
      "geometry": {
        "type": "Point",
        "coordinates": [
          139.78791058071522,
          35.889045909631946
        ]
      }
    },
    {
      "type": "Feature",
      "properties": {
        "name": "Dragon Maid: Real Estate Agency (Oborozuka Residence)",
        "image": "https://survive-tactics.com/wp-content/uploads/2018/09/faf6.png",
        "link": "https://survive-tactics.com/2018/09/24/maidragon_seichizyunnrei/"
      },
      "geometry": {
        "type": "Point",
        "coordinates": [
          139.7880515706762,
          35.88908596222865
        ]
      }
    },
    {
      "type": "Feature",
      "properties": {
        "name": "Dragon Maid: Dentist / STORY Hair Salon",
        "image": "https://survive-tactics.com/wp-content/uploads/2018/09/faf4.png",
        "link": "https://survive-tactics.com/2018/09/24/maidragon_seichizyunnrei/",
        "description": "It used to be a dentist like in the anime, but now it's a hair salon."
      },
      "geometry": {
        "type": "Point",
        "coordinates": [
          139.7889717015642,
          35.88920623316265
        ]
      }
    },
    {
      "type": "Feature",
      "properties": {
        "name": "Dragon Maid: East of Shinheiwa Bridge",
        "image": "https://survive-tactics.com/wp-content/uploads/2018/09/faf1.png",
        "link": "https://survive-tactics.com/2018/09/24/maidragon_seichizyunnrei/"
      },
      "geometry": {
        "type": "Point",
        "coordinates": [
          139.79303258618842,
          35.890651286906255
        ]
      }
    },
    {
      "type": "Feature",
      "properties": {
        "name": "Dragon Maid: Shinheiwa Bridge",
        "image": "https://survive-tactics.com/wp-content/uploads/2018/09/faf2.png",
        "link": "https://survive-tactics.com/2018/09/24/maidragon_seichizyunnrei/"
      },
      "geometry": {
        "type": "Point",
        "coordinates": [
          139.79286238383204,
          35.8909516201695
        ]
      }
    },
    {
      "type": "Feature",
      "properties": {
        "name": "Dragon Maid: Wisteria at the North-West End of Shinheiwa Bridge",
        "image": "https://survive-tactics.com/wp-content/uploads/2018/09/faf3.png",
        "link": "https://survive-tactics.com/2018/09/24/maidragon_seichizyunnrei/"
      },
      "geometry": {
        "type": "Point",
        "coordinates": [
          139.7916357787916,
          35.89057460959184
        ]
      }
    },
    {
      "type": "Feature",
      "properties": {
        "name": "Dragon Maid: Higashikoshigaya Botan Park",
        "image": "https://survive-tactics.com/wp-content/uploads/2018/09/park1-1.png",
        "link": "https://survive-tactics.com/2018/09/24/maidragon_seichizyunnrei/",
        "description": "Botan is the Japanese word for peony. (Skip if low on time.)"
      },
      "geometry": {
        "type": "Point",
        "coordinates": [
          139.7989268969512,
          35.890399573755
        ]
      }
    },
    {
      "type": "Feature",
      "properties": {
        "name": "Dragon Maid: Higashikoshigaya Botan Park Slide",
        "image": "https://survive-tactics.com/wp-content/uploads/2018/09/park1-2.png",
        "link": "https://survive-tactics.com/2018/09/24/maidragon_seichizyunnrei/"
      },
      "geometry": {
        "type": "Point",
        "coordinates": [
          139.79914213067752,
          35.89030349572429
        ]
      }
    },
    {
      "type": "Feature",
      "properties": {
        "name": "Dragon Maid: Higashikoshigaya Botan Park Bench",
        "image": "https://survive-tactics.com/wp-content/uploads/2018/09/park1-3.png",
        "link": "https://survive-tactics.com/2018/09/24/maidragon_seichizyunnrei/"
      },
      "geometry": {
        "type": "Point",
        "coordinates": [
          139.7992571064733,
          35.89035909933217
        ]
      }
    },
    {
      "type": "Feature",
      "properties": {
        "name": "Dragon Maid: Higashikoshigaya Botan Park Grass Field",
        "image": "https://survive-tactics.com/wp-content/uploads/2018/09/park1-4.png",
        "link": "https://survive-tactics.com/2018/09/24/maidragon_seichizyunnrei/"
      },
      "geometry": {
        "type": "Point",
        "coordinates": [
          139.79941465509344,
          35.89013095039582
        ]
      }
    },
    {
      "type": "Feature",
      "properties": {
        "name": "Dragon Maid: Higashikoshigaya Nanachome Shiinoki Park (South Side)",
        "image": "https://survive-tactics.com/wp-content/uploads/2018/09/park2-1.png",
        "link": "https://survive-tactics.com/2018/09/24/maidragon_seichizyunnrei/"
      },
      "geometry": {
        "type": "Point",
        "coordinates": [
          139.80044779303446,
          35.89063215768744
        ]
      }
    },
    {
      "type": "Feature",
      "properties": {
        "name": "Dragon Maid: Higashikoshigaya Nanachome Shiinoki Park",
        "image": "https://survive-tactics.com/wp-content/uploads/2018/09/park2-3.png",
        "link": "https://survive-tactics.com/2018/09/24/maidragon_seichizyunnrei/"
      },
      "geometry": {
        "type": "Point",
        "coordinates": [
          139.80045340081003,
          35.89090156326962
        ]
      }
    },
    {
      "type": "Feature",
      "properties": {
        "name": "Dragon Maid: Way to School",
        "image": "https://survive-tactics.com/wp-content/uploads/2018/09/tugaku.png",
        "link": "https://survive-tactics.com/2018/09/24/maidragon_seichizyunnrei/"
      },
      "geometry": {
        "type": "Point",
        "coordinates": [
          139.80430969629953,
          35.89168543935159
        ]
      }
    },
    {
      "type": "Feature",
      "properties": {
        "name": "Dragon Maid: Motoara River 1",
        "image": "https://survive-tactics.com/wp-content/uploads/2018/09/river1.png",
        "link": "https://survive-tactics.com/2018/09/24/maidragon_seichizyunnrei/",
        "description": "Proportions don't match so the photo will be a bit off."
      },
      "geometry": {
        "type": "Point",
        "coordinates": [
          139.7923191453093,
          35.88873525727121
        ]
      }
    },
    {
      "type": "Feature",
      "properties": {
        "name": "Dragon Maid: Motoara River 2",
        "image": "https://survive-tactics.com/wp-content/uploads/2018/09/river3.png",
        "link": "https://survive-tactics.com/2018/09/24/maidragon_seichizyunnrei/"
      },
      "geometry": {
        "type": "Point",
        "coordinates": [
          139.79384634086372,
          35.88835099190968
        ]
      }
    },
    {
      "type": "Feature",
      "properties": {
        "name": "Dragon Maid: Motoara River 3",
        "image": "https://survive-tactics.com/wp-content/uploads/2018/09/river2.png",
        "link": "https://survive-tactics.com/2018/09/24/maidragon_seichizyunnrei/"
      },
      "geometry": {
        "type": "Point",
        "coordinates": [
          139.79522241946881,
          35.88778862738444
        ]
      }
    },
    {
      "type": "Feature",
      "properties": {
        "name": "Cafe Stella: Nagoya Station",
        "image": "https://cdn-ak.f.st-hatena.com/images/fotolife/y/yuiyu22/20210817/20210817215359.jpg",
        "link": "https://rinnow.hatenablog.com/entry/stella",
        "icon": "black"
      },
      "geometry": {
        "type": "Point",
        "coordinates": [
          136.88399850293274,
          35.17187041479474
        ]
      }
    },
    {
      "type": "Feature",
      "properties": {
        "name": "Cafe Stella: Hijiechō Street",
        "image": "https://cdn-ak.f.st-hatena.com/images/fotolife/y/yuiyu22/20210817/20210817215409.jpg",
        "link": "https://rinnow.hatenablog.com/entry/stella",
        "icon": "black"
      },
      "geometry": {
        "type": "Point",
        "coordinates": [
          136.88543058371985,
          35.1694666035802
        ]
      }
    },
    {
      "type": "Feature",
      "properties": {
        "name": "Cafe Stella: Ōtsu Street",
        "image": "https://cdn-ak.f.st-hatena.com/images/fotolife/y/yuiyu22/20210817/20210817215418.jpg",
        "link": "https://rinnow.hatenablog.com/entry/stella",
        "icon": "black"
      },
      "geometry": {
        "type": "Point",
        "coordinates": [
          136.90697654169196,
          35.16426480447924
        ]
      }
    },
    {
      "type": "Feature",
      "properties": {
        "name": "Cafe Stella: Nadya Park",
        "image": "https://cdn-ak.f.st-hatena.com/images/fotolife/y/yuiyu22/20210817/20210817215505.jpg",
        "link": "https://rinnow.hatenablog.com/entry/stella",
        "icon": "black"
      },
      "geometry": {
        "type": "Point",
        "coordinates": [
          136.90527824448566,
          35.165374239836254
        ]
      }
    },
    {
      "type": "Feature",
      "properties": {
        "name": "Cafe Stella: Wakamiya Hachiman Shrine",
        "image": "https://cdn-ak.f.st-hatena.com/images/fotolife/y/yuiyu22/20210817/20210817215429.jpg",
        "link": "https://rinnow.hatenablog.com/entry/stella",
        "icon": "black"
      },
      "geometry": {
        "type": "Point",
        "coordinates": [
          136.90331380227164,
          35.16303601685916
        ]
      }
    },
    {
      "type": "Feature",
      "properties": {
        "name": "Cafe Stella: Osaka University Toyonaka Campus",
        "image": "https://cdn-ak.f.st-hatena.com/images/fotolife/y/yuiyu22/20210817/20210817215439.jpg",
        "link": "https://rinnow.hatenablog.com/entry/stella",
        "icon": "black"
      },
      "geometry": {
        "type": "Point",
        "coordinates": [
          135.45359463229238,
          34.80589270692499
        ]
      }
    },
    {
      "type": "Feature",
      "properties": {
        "name": "Cafe Stella: Universal City",
        "image": "https://cdn-ak.f.st-hatena.com/images/fotolife/y/yuiyu22/20210817/20210817215454.jpg",
        "link": "https://rinnow.hatenablog.com/entry/stella",
        "icon": "black"
      },
      "geometry": {
        "type": "Point",
        "coordinates": [
          135.437127635988,
          34.66811311474616
        ]
      }
    },
    {
      "type": "Feature",
      "properties": {
        "name": "Fate: Umeyashiki Street",
        "image": "https://en.nalsai.de/blog/seichi/fate/umeyashiki.avif",
        "link": "https://kimamanidance.hatenablog.com/entry/2021/02/21/180000"
      },
      "geometry": {
        "type": "Point",
        "coordinates": [
          139.727719595335,
          35.56740668534043
        ]
      }
    },
    {
      "type": "Feature",
      "properties": {
        "name": "Fate: Yugyō-ji",
        "image": "https://en.nalsai.de/blog/seichi/fate/yugyoji.avif",
        "link": "https://en.nalsai.de/blog/seichi/fate#yugyō-ji-fujisawa-kanagawa",
        "description": "NOTE: The interior is based on Eihei-ji in Fukui Prefecture."
      },
      "geometry": {
        "type": "Point",
        "coordinates": [
          139.4883360811191,
          35.34804540673058
        ]
      }
    },
    {
      "type": "Feature",
      "properties": {
        "name": "Fate: Somon Gate of Engakuji",
        "image": "https://en.nalsai.de/blog/seichi/fate/engakuji.avif",
        "link": "https://en.nalsai.de/blog/seichi/fate#engakuji",
        "description": "Looks similar but the stairs are different."
      },
      "geometry": {
        "type": "Point",
        "coordinates": [
          139.54596673866536,
          35.33696792890682
        ]
      }
    },
    {
      "type": "Feature",
      "geometry": {
        "type": "Point",
        "coordinates": [
          135.1900342,
          34.6967038
        ]
      },
      "properties": {
        "name": "LLJ: 路地裏",
        "image": "https://files.nils.moe/www/nalsai.de/blog/seichi/TODO/lalajam/llj-alley.jpg"
      }
    },
    {
      "type": "Feature",
      "geometry": {
        "type": "Point",
        "coordinates": [
          135.4875039,
          34.7033005
        ]
      },
      "properties": {
        "name": "LLJ: ライブハウス周辺",
        "image": "https://files.nils.moe/www/nalsai.de/blog/seichi/TODO/lalajam/llj-street.jpg"
      }
    },
    {
      "type": "Feature",
      "geometry": {
        "type": "Point",
        "coordinates": [
          135.1934671,
          34.6942843
        ]
      },
      "properties": {
        "name": "LLJ: 英山駅前",
        "image": "https://files.nils.moe/www/nalsai.de/blog/seichi/TODO/lalajam/llj-station.jpg"
      }
    },
    {
      "type": "Feature",
      "geometry": {
        "type": "Point",
        "coordinates": [
          135.1933806,
          34.6942181
        ]
      },
      "properties": {
        "name": "LLJ: MV",
        "image": "https://files.nils.moe/www/nalsai.de/blog/seichi/TODO/lalajam/llj-mv.jpg"
      }
    },
    {
      "type": "Feature",
      "geometry": {
        "type": "Point",
        "coordinates": [
          134.0497527,
          34.3424757
        ]
      },
      "properties": {
        "name": "LLJ: 河鍋音楽祭",
        "images": [
          "https://files.nils.moe/www/nalsai.de/blog/seichi/TODO/lalajam/llj-takamatsu.png",
          "https://files.nils.moe/www/nalsai.de/blog/seichi/TODO/lalajam/llj-takamatsu-2.png"
        ]
      }
    },
    {
      "type": "Feature",
      "geometry": {
        "type": "Point",
        "coordinates": [
          139.7002269286329,
          35.659382674131
        ]
      },
      "properties": {
        "name": "Subahibi: Rooftop Background Buildings (Shibuya)",
        "icon": "red",
        "images": [
          "https://files.nils.moe/www/nalsai.de/blog/seichi/TODO/subahibi/roof.jpg",
          "https://files.nils.moe/www/nalsai.de/blog/seichi/TODO/subahibi/shibuya-rl.png"
        ]
      }
    },
    {
      "type": "Feature",
      "geometry": {
        "type": "Point",
        "coordinates": [
          139.70107001346756,
          35.692141032100594
        ]
      },
      "properties": {
        "name": "WA2: JR新宿駅東口前",
        "icon": "green",
        "image": "https://files.nils.moe/www/nalsai.de/blog/seichi/TODO/wa2/onjuku-station_night.webp"
      }
    },
    {
      "type": "Feature",
      "geometry": {
        "type": "Point",
        "coordinates": [
          139.70113898739626,
          35.692286007693816
        ]
      },
      "properties": {
        "name": "WA2: 新宿アルタビジョン",
        "icon": "green",
        "image": "https://files.nils.moe/www/nalsai.de/blog/seichi/TODO/wa2/onjuku-screen.jpg",
        "description": "doesn't exist anymore"
      }
    },
    {
      "type": "Feature",
      "geometry": {
        "type": "Point",
        "coordinates": [
          139.7024236052739,
          35.691886857852126
        ]
      },
      "properties": {
        "name": "WA2: 紀伊國屋書店 新宿本店前交差点",
        "icon": "green",
        "image": "https://files.nils.moe/www/nalsai.de/blog/seichi/TODO/wa2/onjuku-books_night.webp"
      }
    },
    {
      "type": "Feature",
      "geometry": {
        "type": "Point",
        "coordinates": [
          139.75958586022523,
          35.66550973909646
        ]
      },
      "properties": {
        "name": "WA2: 新橋駅",
        "icon": "green",
        "image": "https://files.nils.moe/www/nalsai.de/blog/seichi/TODO/wa2/seaside-station.webp"
      }
    },
    {
      "type": "Feature",
      "geometry": {
        "type": "Point",
        "coordinates": [
          139.70441323613488,
          35.69114475939917
        ]
      },
      "properties": {
        "name": "WA2: 伊勢丹新宿店本館 入口",
        "icon": "green",
        "image": "https://files.nils.moe/www/nalsai.de/blog/seichi/TODO/wa2/office.webp"
      }
    },
    {
      "type": "Feature",
      "geometry": {
        "type": "Point",
        "coordinates": [
          139.69648893988068,
          35.690218520855105
        ]
      },
      "properties": {
        "name": "WA2: WA2: 新宿郵便局前",
        "icon": "green",
        "images": [
          "https://files.nils.moe/www/nalsai.de/blog/seichi/TODO/wa2/onjuku-street.webp",
          "https://files.nils.moe/www/nalsai.de/blog/seichi/TODO/wa2/onjuku-street-2.png"
        ],
        "description": "maybe further south"
      }
    },
    {
      "type": "Feature",
      "geometry": {
        "type": "Point",
        "coordinates": [
          139.6897785921876,
          35.68691861468627
        ]
      },
      "properties": {
        "name": "WA2: 新宿中央公園ちびっ子広場",
        "icon": "green",
        "image": "https://files.nils.moe/www/nalsai.de/blog/seichi/TODO/wa2/onjuku-park.webp"
      }
    },
    {
      "type": "Feature",
      "geometry": {
        "type": "Point",
        "coordinates": [
          139.70050213924557,
          35.69345746320011
        ]
      },
      "properties": {
        "name": "WA2: 公衆電話",
        "icon": "purple",
        "description": "not pictured in game; McDonald's in the background"
      }
    },
    {
      "type": "Feature",
      "geometry": {
        "type": "Point",
        "coordinates": [
          139.57979112022937,
          35.70347658657901
        ]
      },
      "properties": {
        "name": "WA2: 末次町駅",
        "icon": "green",
        "image": "https://files.nils.moe/www/nalsai.de/blog/seichi/TODO/wa2/minamisuetsugu-station.webp",
        "description": "has changed a lot"
      }
    },
    {
      "type": "Feature",
      "geometry": {
        "type": "Point",
        "coordinates": [
          139.5196273527617,
          35.90319578540487
        ]
      },
      "properties": {
        "name": "WA2: 南古谷駅",
        "icon": "green",
        "images": [
          "https://files.nils.moe/www/nalsai.de/blog/seichi/TODO/wa2/suetsugucho-station.webp",
          "https://files.nils.moe/www/nalsai.de/blog/seichi/TODO/wa2/iwazucho-station-platform.webp"
        ],
        "description": "mirrored and replaced by a new station building in 2025"
      }
    },
    {
      "type": "Feature",
      "geometry": {
        "type": "Point",
        "coordinates": [
          139.9079534,
          35.7294067
        ]
      },
      "properties": {
        "name": "WA2: 岩津町駅",
        "icon": "purple",
        "image": "https://files.nils.moe/www/nalsai.de/blog/seichi/TODO/wa2/iwazucho-station.webp",
        "description": "pretty different, mirrored"
      }
    },
    {
      "type": "Feature",
      "geometry": {
        "type": "Point",
        "coordinates": [
          139.90922179465358,
          35.72922287527118
        ]
      },
      "properties": {
        "name": "WA2: コートダジュール 市川駅前店（閉店）",
        "icon": "purple",
        "image": "https://files.nils.moe/www/nalsai.de/blog/seichi/TODO/wa2/out/WA2 E08 05m24s282t.avif"
      }
    },
    {
      "type": "Feature",
      "geometry": {
        "type": "Point",
        "coordinates": [
          139.9045179,
          35.7289084
        ]
      },
      "properties": {
        "name": "WA2: 市川南第一公園",
        "icon": "green",
        "images": [
          "https://files.nils.moe/www/nalsai.de/blog/seichi/TODO/wa2/park.webp",
          "https://files.nils.moe/www/nalsai.de/blog/seichi/TODO/wa2/out/WA2 E02 06m58s001t.avif"
        ],
        "description": "first is from the VN, second anime"
      }
    },
    {
      "type": "Feature",
      "geometry": {
        "type": "Point",
        "coordinates": [
          140.38356942144875,
          35.76360604907407
        ]
      },
      "properties": {
        "name": "WA2: 成田空港第1ターミナル展望デッキ／成田空港第２ターミナル見学デッキ南",
        "icon": "green",
        "images": [
          "https://files.nils.moe/www/nalsai.de/blog/seichi/TODO/wa2/narita-airport-observation-deck.webp",
          "https://files.nils.moe/www/nalsai.de/blog/seichi/TODO/wa2/narita-airport-observation-deck-2.png"
        ],
        "description": "Terminal 1 deck is being renovated as of 2025"
      }
    },
    {
      "type": "Feature",
      "geometry": {
        "type": "Point",
        "coordinates": [
          140.38869347737176,
          35.77242848745243
        ]
      },
      "properties": {
        "name": "WA2: 成田空港 第2ターミナル",
        "icon": "green",
        "images": [
          "https://files.nils.moe/www/nalsai.de/blog/seichi/TODO/wa2/narita-airport.webp",
          "https://files.nils.moe/www/nalsai.de/blog/seichi/TODO/wa2/narita-airport-2.png"
        ]
      }
    },
    {
      "type": "Feature",
      "geometry": {
        "type": "Point",
        "coordinates": [
          139.56795,
          35.81379,
          0
        ]
      },
      "properties": {
        "name": "WA2: 立教大学 新座キャンパス 1",
        "icon": "green",
        "image": "https://files.nils.moe/www/nalsai.de/blog/seichi/TODO/wa2/hojodai.webp"
      }
    },
    {
      "type": "Feature",
      "geometry": {
        "type": "Point",
        "coordinates": [
          139.5663828,
          35.8131393,
          0
        ]
      },
      "properties": {
        "name": "WA2: 立教大学2",
        "icon": "green",
        "image": "https://files.nils.moe/www/nalsai.de/blog/seichi/TODO/wa2/hojodai-2.webp"
      }
    },
    {
      "type": "Feature",
      "geometry": {
        "type": "Point",
        "coordinates": [
          139.5658428288228,
          35.81425030525786
        ]
      },
      "properties": {
        "name": "WA2: 立教大学3 Building 4",
        "icon": "green",
        "images": [
          "https://files.nils.moe/www/nalsai.de/blog/seichi/TODO/wa2/hojodai-3.png",
          "https://files.nils.moe/www/nalsai.de/blog/seichi/TODO/wa2/hojodai-4.webp"
        ],
        "description": "approximate location"
      }
    },
    {
      "type": "Feature",
      "geometry": {
        "type": "Point",
        "coordinates": [
          139.70389378170822,
          35.730944708564905
        ]
      },
      "properties": {
        "name": "WA2: 立教大学本館前",
        "icon": "green",
        "image": "https://files.nils.moe/www/nalsai.de/blog/seichi/TODO/wa2/university.webp"
      }
    },
    {
      "type": "Feature",
      "geometry": {
        "type": "Point",
        "coordinates": [
          139.90221176584086,
          35.738138954500535
        ]
      },
      "properties": {
        "name": "WA2: 江戸川河川敷東岸",
        "icon": "purple",
        "images": [
          "https://files.nils.moe/www/nalsai.de/blog/seichi/TODO/wa2/out/WA2 E01 11m42s535t.avif",
          "https://files.nils.moe/www/nalsai.de/blog/seichi/TODO/wa2/out/WA2 E09 14m56s521t.avif"
        ]
      }
    },
    {
      "type": "Feature",
      "geometry": {
        "type": "Point",
        "coordinates": [
          139.90135008677893,
          35.74212861162986
        ]
      },
      "properties": {
        "name": "WA2: 江戸川沿いの歩道",
        "icon": "green",
        "image": "https://files.nils.moe/www/nalsai.de/blog/seichi/TODO/wa2/riverside.webp"
      }
    },
    {
      "type": "Feature",
      "geometry": {
        "type": "Point",
        "coordinates": [
          139.6948650740748,
          35.69014727550773
        ]
      },
      "properties": {
        "name": "WA2: 京王プラザホテル",
        "icon": "green",
        "image": "https://files.nils.moe/www/nalsai.de/blog/seichi/TODO/wa2/integral-hotel.webp"
      }
    },
    {
      "type": "Feature",
      "geometry": {
        "type": "Point",
        "coordinates": [
          139.79290799928813,
          35.628839801421904
        ]
      },
      "properties": {
        "name": "WA2: 有明西ふ頭公園",
        "icon": "green",
        "images": [
          "https://files.nils.moe/www/nalsai.de/blog/seichi/TODO/wa2/seaside_night.webp",
          "https://files.nils.moe/www/nalsai.de/blog/seichi/TODO/wa2/seaside-2.png"
        ],
        "description": "mirrored"
      }
    },
    {
      "type": "Feature",
      "geometry": {
        "type": "Point",
        "coordinates": [
          139.90351586765834,
          35.73071298833504
        ]
      },
      "properties": {
        "name": "WA2: 山桜公園",
        "icon": "purple",
        "image": "https://files.nils.moe/www/nalsai.de/blog/seichi/TODO/wa2/out/WA2 E12 17m02s813t.avif"
      }
    },
    {
      "type": "Feature",
      "geometry": {
        "type": "Point",
        "coordinates": [
          139.56493913587022,
          35.728824554796276
        ]
      },
      "properties": {
        "name": "WA2: 東伏見駅（北口）",
        "icon": "purple",
        "image": "https://files.nils.moe/www/nalsai.de/blog/seichi/TODO/wa2/out/WA2 E03 11m48s958t.avif"
      }
    },
    {
      "type": "Feature",
      "geometry": {
        "type": "Point",
        "coordinates": [
          139.56429881376005,
          35.72836014185271
        ]
      },
      "properties": {
        "name": "WA2: 東伏見駅（南口）",
        "icon": "purple",
        "image": "https://files.nils.moe/www/nalsai.de/blog/seichi/TODO/wa2/out/WA2 E03 11m39s073t.avif"
      }
    }
  ]
}